{"fetchedAt": "2026-02-26T21:23:49", "sources": {"bpost_pudo": 4221, "dpd": 0, "postnl": 0, "gls": 0, "mondialrelay": 0}, "points": [{"id": "bpost_38093", "lat": 50.84582, "lng": 4.35391, "name": "BBOX AGORA GALERIE BXL", "operator": "bpost", "type": "locker", "subtype": "4", "address": "GRASMARKT 105, 1000 BRUSSEL", "source": "bpost_pudo"}, {"id": "bpost_100472", "lat": 50.84563, "lng": 4.35625, "name": "RELAY CENTRAAL STATION", "operator": "bpost", "type": "post_point", "subtype": "2", "address": "EUROPAKRUISPUNT 2, 1000 BRUSSEL", "source": "bpost_pudo"}, {"id": "bpost_638003", "lat": 50.84878, "lng": 4.35508, "name": "MARKET MASOOD", "operator": "bpost", "type": "post_point", "subtype": "2", "address": "SCHILDKNAAPSSTRAAT 55, 1000 BRUSSEL", "source": "bpost_pudo"}, {"id": "bpost_032400", "lat": 50.84462, "lng": 4.34771, "name": "BRUSSEL BOGAARDEN", "operator": "bpost", "type": "post_office", "subtype": "1", "address": "BOGAARDENSTRAAT 17-19, 1000 BRUSSEL", "source": "bpost_pudo"}, {"id": "bpost_42748", "lat": 50.84455, "lng": 4.34769, "name": "BBOX BRUXELLES BOGARDS BPOST", "operator": "bpost", "type": "locker", "subtype": "4", "address": "BOGAARDENSTRAAT 17-19, 1000 BRUSSEL", "source": "bpost_pudo"}, {"id": "bpost_36632", "lat": 50.84555, "lng": 4.3571, "name": "BBOX GARE BRUX-CEN", "operator": "bpost", "type": "locker", "subtype": "4", "address": "EUROPAKRUISPUNT 2, 1000 BRUSSEL", "source": "bpost_pudo"}, {"id": "bpost_020100", "lat": 50.85112, "lng": 4.35051, "name": "BRUSSEL DE BROUCKERE", "operator": "bpost", "type": "post_office", "subtype": "1", "address": "LAKENSESTRAAT 1, 1000 BRUSSEL", "source": "bpost_pudo"}, {"id": "bpost_14472", "lat": 50.85119, "lng": 4.3508, "name": "BBOX-AUTOM DE BROUCKÈRE", "operator": "bpost", "type": "locker", "subtype": "4", "address": "LAKENSESTRAAT 1, 1000 BRUSSEL", "source": "bpost_pudo"}, {"id": "bpost_850170", "lat": 50.84628, "lng": 4.34309, "name": "DAGBLADHANDEL MAES", "operator": "bpost", "type": "post_point", "subtype": "2", "address": "ARTEVELDESTRAAT 159, 1000 BRUSSEL", "source": "bpost_pudo"}, {"id": "bpost_43036", "lat": 50.84145, "lng": 4.3483, "name": "BBOX-AUTOM NMBS CHAPELLE-KAPELLEKERK", "operator": "bpost", "type": "locker", "subtype": "4", "address": "URSULINENSTRAAT 17-27, 1000 BRUSSEL", "source": "bpost_pudo"}, {"id": "bpost_42138", "lat": 50.84824, "lng": 4.34319, "name": "BBOX-AUTOM  LAVOIR FLEURS", "operator": "bpost", "type": "locker", "subtype": "4", "address": "BLOEMENHOFPLEIN 9, 1000 BRUSSEL", "source": "bpost_pudo"}, {"id": "bpost_638765", "lat": 50.84021, "lng": 4.3498, "name": "MAXPOST", "operator": "bpost", "type": "post_point", "subtype": "2", "address": "BLAESSTRAAT 45, 1000 BRUSSEL", "source": "bpost_pudo"}, {"id": "bpost_819450", "lat": 50.83988, "lng": 4.35575, "name": "SPAR EXPRESS ZAVEL", "operator": "bpost", "type": "post_point", "subtype": "2", "address": "ZAVELSTRAAT 17, 1000 BRUSSEL", "source": "bpost_pudo"}, {"id": "bpost_41431", "lat": 50.84466, "lng": 4.33967, "name": "BBOX TAPIS MIDI - BRICO MIDI", "operator": "bpost", "type": "locker", "subtype": "4", "address": "ZUIDLAAN 3-4, 1000 BRUSSEL", "source": "bpost_pudo"}, {"id": "bpost_810040", "lat": 50.84795, "lng": 4.36412, "name": "SUPERETTE NATANELI", "operator": "bpost", "type": "post_point", "subtype": "2", "address": "IJZERENKRUISSTRAAT 33, 1000 BRUSSEL", "source": "bpost_pudo"}, {"id": "bpost_42397", "lat": 50.83797, "lng": 4.34971, "name": "BBOX BOUTIQUE MAROLLES", "operator": "bpost", "type": "locker", "subtype": "4", "address": "HOOGSTRAAT 184, 1000 BRUSSEL", "source": "bpost_pudo"}, {"id": "bpost_809940", "lat": 50.85456, "lng": 4.3578, "name": "PRESS SHOP CITY 2", "operator": "bpost", "type": "post_point", "subtype": "2", "address": "NIEUWSTRAAT 123A, 1000 BRUSSEL", "source": "bpost_pudo"}, {"id": "bpost_638868", "lat": 50.84424, "lng": 4.33689, "name": "ALIMENTATION GENERALE", "operator": "bpost", "type": "post_point", "subtype": "2", "address": "BERGENSE STEENWEG 36, 1070 ANDERLECHT", "source": "bpost_pudo"}, {"id": "bpost_641254", "lat": 50.83696, "lng": 4.34856, "name": "IRIS-SHOP", "operator": "bpost", "type": "post_point", "subtype": "2", "address": "HOOGSTRAAT 234, 1000 BRUSSEL", "source": "bpost_pudo"}, {"id": "bpost_100709", "lat": 50.85644, "lng": 4.3527, "name": "GATSBY", "operator": "bpost", "type": "post_point", "subtype": "2", "address": "LAKENSESTRAAT 166-168, 1000 BRUSSEL", "source": "bpost_pudo"}, {"id": "bpost_033100", "lat": 50.8404, "lng": 4.33823, "name": "ANDERLECHT AUTONOMIE", "operator": "bpost", "type": "post_office", "subtype": "1", "address": "ZELFBESTUURSSTRAAT 6, 1070 ANDERLECHT", "source": "bpost_pudo"}, {"id": "bpost_42032", "lat": 50.84031, "lng": 4.33832, "name": "BBOX ANDERLECHT AUTONOMIE BPOST", "operator": "bpost", "type": "locker", "subtype": "4", "address": "ZELFBESTUURSSTRAAT 6A, 1070 ANDERLECHT", "source": "bpost_pudo"}, {"id": "bpost_41488", "lat": 50.84932, "lng": 4.36776, "name": "BBOX I-WASH STORE", "operator": "bpost", "type": "locker", "subtype": "4", "address": "CONGRESSTRAAT 52, 1000 BRUSSEL", "source": "bpost_pudo"}, {"id": "bpost_806280", "lat": 50.85024, "lng": 4.3677, "name": "DAGBLADHANDEL WORLDWIDE", "operator": "bpost", "type": "post_point", "subtype": "2", "address": "EREDIENSTSTRAAT 28, 1000 BRUSSEL", "source": "bpost_pudo"}, {"id": "bpost_809630", "lat": 50.83615, "lng": 4.34541, "name": "PHOTOBLAES", "operator": "bpost", "type": "post_point", "subtype": "2", "address": "BLAESSTRAAT 182B, 1000 BRUSSEL", "source": "bpost_pudo"}, {"id": "bpost_806220", "lat": 50.84036, "lng": 4.36696, "name": "CARREFOUR EXPRESS TRONE", "operator": "bpost", "type": "post_point", "subtype": "2", "address": "LUXEMBURGSTRAAT 3, 1000 BRUSSEL", "source": "bpost_pudo"}, {"id": "bpost_032300", "lat": 50.84876, "lng": 4.36951, "name": "BRUSSEL MADOU", "operator": "bpost", "type": "post_office", "subtype": "1", "address": "KUNSTLAAN 1-2, 1210 SINT-JOOST-TEN-NODE", "source": "bpost_pudo"}, {"id": "bpost_40327", "lat": 50.84877, "lng": 4.36964, "name": "BBOX BPOST BRUXELLES MADOU", "operator": "bpost", "type": "locker", "subtype": "4", "address": "KUNSTLAAN 1-2, 1210 SINT-JOOST-TEN-NODE", "source": "bpost_pudo"}, {"id": "bpost_638903", "lat": 50.84883, "lng": 4.36984, "name": "PRESS FACTORY", "operator": "bpost", "type": "post_point", "subtype": "2", "address": "MADOUPLEIN 8, 1210 SINT-JOOST-TEN-NODE", "source": "bpost_pudo"}, {"id": "bpost_640020", "lat": 50.85751, "lng": 4.36172, "name": "R&L SERVICE", "operator": "bpost", "type": "post_point", "subtype": "2", "address": "SINT-LAZARUSPLEIN 5, 1210 SINT-JOOST-TEN-NODE", "source": "bpost_pudo"}, {"id": "bpost_821010", "lat": 50.83652, "lng": 4.33907, "name": "PROXY DELHAIZE FONSNY", "operator": "bpost", "type": "post_point", "subtype": "2", "address": "FONSNYLAAN 14, 1060 SINT-GILLIS", "source": "bpost_pudo"}, {"id": "bpost_100908", "lat": 50.85491, "lng": 4.36719, "name": "LE PETIT BOTANIQUE", "operator": "bpost", "type": "post_point", "subtype": "2", "address": "HAACHTSESTEENWEG 16, 1210 SINT-JOOST-TEN-NODE", "source": "bpost_pudo"}, {"id": "bpost_41592", "lat": 50.84983, "lng": 4.33178, "name": "BBOX DESTOCK KING", "operator": "bpost", "type": "locker", "subtype": "4", "address": "NINOOFSESTEENWEG 77, 1080 SINT-JANS-MOLENBEEK", "source": "bpost_pudo"}, {"id": "bpost_101465", "lat": 50.83903, "lng": 4.33452, "name": "B&A SHOP", "operator": "bpost", "type": "post_point", "subtype": "2", "address": "DE FIENNESSTRAAT 16, 1070 ANDERLECHT", "source": "bpost_pudo"}, {"id": "bpost_637005", "lat": 50.83663, "lng": 4.36567, "name": "FASHION-DESIGN", "operator": "bpost", "type": "post_point", "subtype": "2", "address": "WAVERSE STEENWEG 73, 1050 ELSENE", "source": "bpost_pudo"}, {"id": "bpost_36421", "lat": 50.8591, "lng": 4.36019, "name": "BBOX SNCB NORD REZ-D-C", "operator": "bpost", "type": "locker", "subtype": "4", "address": "VOORUITGANGSTRAAT 76, 1030 SCHAARBEEK", "source": "bpost_pudo"}, {"id": "bpost_100966", "lat": 50.85538, "lng": 4.33511, "name": "GLOBAL ROYAL COMPAGNY", "operator": "bpost", "type": "post_point", "subtype": "2", "address": "VIERWINDENSTRAAT 4, 1080 SINT-JANS-MOLENBEEK", "source": "bpost_pudo"}, {"id": "bpost_100962", "lat": 50.83582, "lng": 4.36626, "name": "WASH EXPRESS", "operator": "bpost", "type": "post_point", "subtype": "2", "address": "LANG-LEVENSTRAAT 42, 1050 ELSENE", "source": "bpost_pudo"}, {"id": "bpost_819060", "lat": 50.83531, "lng": 4.33731, "name": "RELAY BRUSSEL ZUID FRANKR", "operator": "bpost", "type": "post_point", "subtype": "2", "address": "FONSNYLAAN 47B, 1060 SINT-GILLIS", "source": "bpost_pudo"}, {"id": "bpost_42496", "lat": 50.84444, "lng": 4.32874, "name": "AUTOMAAT SPEED WASH HEYVAERT", "operator": "bpost", "type": "locker", "subtype": "4", "address": "HEYVAERTSTRAAT 197, 1070 ANDERLECHT", "source": "bpost_pudo"}, {"id": "bpost_41727", "lat": 50.83205, "lng": 4.34592, "name": "BBOX LDL VICTOIRE", "operator": "bpost", "type": "locker", "subtype": "4", "address": "OVERWINNINGSSTRAAT 15, 1060 SINT-GILLIS", "source": "bpost_pudo"}, {"id": "bpost_825040", "lat": 50.86013, "lng": 4.34092, "name": "PHONE INFO CENTER", "operator": "bpost", "type": "post_point", "subtype": "2", "address": "LEOPOLD II LAAN 76, 1080 SINT-JANS-MOLENBEEK", "source": "bpost_pudo"}, {"id": "bpost_825940", "lat": 50.85312, "lng": 4.37377, "name": "HOUWAERT PRESSE", "operator": "bpost", "type": "post_point", "subtype": "2", "address": "HOUWAERTPLEIN 10, 1210 SINT-JOOST-TEN-NODE", "source": "bpost_pudo"}, {"id": "bpost_42085", "lat": 50.84931, "lng": 4.37601, "name": "BBOX PLACE ST-JOSSE BPOST", "operator": "bpost", "type": "locker", "subtype": "4", "address": "WILLEMSSTRAAT 18, 1210 SINT-JOOST-TEN-NODE", "source": "bpost_pudo"}, {"id": "bpost_011900", "lat": 50.84945, "lng": 4.37609, "name": "ST-JOOST-ST-JOOSTPLEIN", "operator": "bpost", "type": "post_office", "subtype": "1", "address": "WILLEMSSTRAAT 18, 1210 SINT-JOOST-TEN-NODE", "source": "bpost_pudo"}, {"id": "bpost_37325", "lat": 50.83564, "lng": 4.3338, "name": "BBOX GARE BXL-MIDI", "operator": "bpost", "type": "locker", "subtype": "4", "address": "FRANKRIJKSTRAAT 2, 1060 SINT-GILLIS", "source": "bpost_pudo"}, {"id": "bpost_100833", "lat": 50.83215, "lng": 4.34162, "name": "INTERMARCHE SINT-GILLIS", "operator": "bpost", "type": "post_point", "subtype": "2", "address": "VORSTSE STEENWEG 32, 1060 SINT-GILLIS", "source": "bpost_pudo"}, {"id": "bpost_101018", "lat": 50.83089, "lng": 4.3483, "name": "LIBRAIRIE LEOMINA", "operator": "bpost", "type": "post_point", "subtype": "2", "address": "MUNTHOFSTRAAT 74, 1060 SINT-GILLIS", "source": "bpost_pudo"}, {"id": "bpost_100355", "lat": 50.83822, "lng": 4.37311, "name": "PRESS SHOP BXL GARE LUX", "operator": "bpost", "type": "post_point", "subtype": "2", "address": "TRIERSTRAAT 2, 1050 ELSENE", "source": "bpost_pudo"}, {"id": "bpost_36325", "lat": 50.83779, "lng": 4.37269, "name": "BBOX NMBS BXL-LUX", "operator": "bpost", "type": "locker", "subtype": "4", "address": "TRIERSTRAAT 1, 1050 ELSENE", "source": "bpost_pudo"}, {"id": "bpost_42550", "lat": 50.84543, "lng": 4.37712, "name": "BBOX-AUTOM BRUSSEL LIVINGSTONE BPOST", "operator": "bpost", "type": "locker", "subtype": "4", "address": "STEVINSTRAAT 41-43, 1000 BRUSSEL", "source": "bpost_pudo"}, {"id": "bpost_002200", "lat": 50.84555, "lng": 4.37718, "name": "BRUSSEL LIVINGSTONE", "operator": "bpost", "type": "post_office", "subtype": "1", "address": "STEVINSTRAAT 41-43, 1000 BRUSSEL", "source": "bpost_pudo"}, {"id": "bpost_004700", "lat": 50.86169, "lng": 4.36114, "name": "BRUSSEL NOORDSTATION", "operator": "bpost", "type": "post_office", "subtype": "1", "address": "VOORUITGANGSTRAAT 76, 1030 SCHAARBEEK", "source": "bpost_pudo"}, {"id": "bpost_42177", "lat": 50.83154, "lng": 4.34052, "name": "BBOX-AUTOM CITY MARKET ST-GILLES", "operator": "bpost", "type": "locker", "subtype": "4", "address": "VORSTSE STEENWEG 64, 1060 SINT-GILLIS", "source": "bpost_pudo"}, {"id": "bpost_43012", "lat": 50.83601, "lng": 4.37365, "name": "BBOX PROXY SHOP", "operator": "bpost", "type": "locker", "subtype": "4", "address": "WAVERSE STEENWEG 234, 1050 ELSENE", "source": "bpost_pudo"}, {"id": "bpost_101368", "lat": 50.86166, "lng": 4.36594, "name": "GFC LOGISTICS NEW", "operator": "bpost", "type": "post_point", "subtype": "2", "address": "GROENSTRAAT 181, 1030 SCHAARBEEK", "source": "bpost_pudo"}, {"id": "bpost_34515", "lat": 50.84232, "lng": 4.37877, "name": "BBOX SNCB BXL SCHU", "operator": "bpost", "type": "locker", "subtype": "4", "address": "WETSTRAAT 155, 1040 BRUSSEL", "source": "bpost_pudo"}, {"id": "bpost_42286", "lat": 50.85595, "lng": 4.37543, "name": "BBOX-AUTOM LIDL COTEAUX SCHAERBEEK", "operator": "bpost", "type": "locker", "subtype": "4", "address": "WIJNHEUVELENSTRAAT 44, 1030 SCHAARBEEK", "source": "bpost_pudo"}, {"id": "bpost_637276", "lat": 50.86404, "lng": 4.34412, "name": "PICARD SHOP&GO", "operator": "bpost", "type": "post_point", "subtype": "2", "address": "PICARDSTRAAT 92, 1080 SINT-JANS-MOLENBEEK", "source": "bpost_pudo"}, {"id": "bpost_637933", "lat": 50.85693, "lng": 4.32815, "name": "KOEKELBERG RUE PIERMEZ", "operator": "bpost", "type": "post_point", "subtype": "2", "address": "PHILIPPE PIERMEZSTRAAT 20, 1081 KOEKELBERG", "source": "bpost_pudo"}, {"id": "bpost_637500", "lat": 50.85863, "lng": 4.32999, "name": "MARKET 1987", "operator": "bpost", "type": "post_point", "subtype": "2", "address": "SINT-ANNAKERKSTRAAT 128, 1081 KOEKELBERG", "source": "bpost_pudo"}, {"id": "bpost_101095", "lat": 50.82898, "lng": 4.36001, "name": "YOUR PHONE & MR COLIS", "operator": "bpost", "type": "post_point", "subtype": "2", "address": "LIVORNOSTRAAT 67, 1050 ELSENE", "source": "bpost_pudo"}, {"id": "bpost_42657", "lat": 50.8399, "lng": 4.32437, "name": "BBOX-AUTOM LIDL ALBERT 1-ANDERLECHT", "operator": "bpost", "type": "locker", "subtype": "4", "address": "BERGENSE STEENWEG 301, 1070 ANDERLECHT", "source": "bpost_pudo"}, {"id": "bpost_101448", "lat": 50.83131, "lng": 4.36838, "name": "LE HUB NEW", "operator": "bpost", "type": "post_point", "subtype": "2", "address": "ELSENSESTEENWEG 231, 1050 ELSENE", "source": "bpost_pudo"}, {"id": "bpost_38157", "lat": 50.86456, "lng": 4.34401, "name": "BBOX T&T GARE MARITIME", "operator": "bpost", "type": "locker", "subtype": "4", "address": "PICARDSTRAAT 11, 1000 BRUSSEL", "source": "bpost_pudo"}, {"id": "bpost_637934", "lat": 50.8297, "lng": 4.33858, "name": "WARID", "operator": "bpost", "type": "post_point", "subtype": "2", "address": "THÉODORE VERHAEGENSTRAAT 123B, 1060 SINT-GILLIS", "source": "bpost_pudo"}, {"id": "bpost_42869", "lat": 50.83272, "lng": 4.33155, "name": "BBOX GARE PIÉTON", "operator": "bpost", "type": "locker", "subtype": "4", "address": "PLACE HUBERT MOULIN DISTRIB, 7160 CHAPELLE-LEZ-HERLAIMONT", "source": "bpost_pudo"}, {"id": "bpost_637023", "lat": 50.86329, "lng": 4.33752, "name": "NOOR SHOP", "operator": "bpost", "type": "post_point", "subtype": "2", "address": "JUBELFEESTLAAN 46, 1080 SINT-JANS-MOLENBEEK", "source": "bpost_pudo"}, {"id": "bpost_100674", "lat": 50.8507, "lng": 4.38134, "name": "LIBRAIRIE OLI", "operator": "bpost", "type": "post_point", "subtype": "2", "address": "LEUVENSESTEENWEG 266, 1000 BRUSSEL", "source": "bpost_pudo"}, {"id": "bpost_37787", "lat": 50.84918, "lng": 4.3215, "name": "BBOX WESTSTATION BXL", "operator": "bpost", "type": "locker", "subtype": "4", "address": "NINOOFSESTEENWEG AUTOMAT, 1080 SINT-JANS-MOLENBEEK", "source": "bpost_pudo"}, {"id": "bpost_642087", "lat": 50.84002, "lng": 4.38081, "name": "LOUIS DELHAIZE BELLIARD", "operator": "bpost", "type": "post_point", "subtype": "2", "address": "BELLIARDSTRAAT 141, 1040 ETTERBEEK", "source": "bpost_pudo"}, {"id": "bpost_640344", "lat": 50.83586, "lng": 4.37802, "name": "MR.TECH", "operator": "bpost", "type": "post_point", "subtype": "2", "address": "WAVERSE STEENWEG 263, 1050 ELSENE", "source": "bpost_pudo"}, {"id": "bpost_638978", "lat": 50.83901, "lng": 4.32275, "name": "RETOUR O NATUREL", "operator": "bpost", "type": "post_point", "subtype": "2", "address": "ALBERT I-SQUARE 17, 1070 ANDERLECHT", "source": "bpost_pudo"}, {"id": "bpost_619030", "lat": 50.84257, "lng": 4.38243, "name": "RELAY SCHUMAN GARE", "operator": "bpost", "type": "post_point", "subtype": "2", "address": "WETSTRAAT 175, 1048 Europese unie - Raad", "source": "bpost_pudo"}, {"id": "bpost_003300", "lat": 50.82741, "lng": 4.34295, "name": "ST-GILLIS BARREEL", "operator": "bpost", "type": "post_office", "subtype": "1", "address": "STERCKXSTRAAT 5, 1060 SINT-GILLIS", "source": "bpost_pudo"}, {"id": "bpost_010500", "lat": 50.85688, "lng": 4.32458, "name": "MOLENBEEK DUBOIS THORN", "operator": "bpost", "type": "post_office", "subtype": "1", "address": "DUBOIS-THORNSTRAAT 2, 1080 SINT-JANS-MOLENBEEK", "source": "bpost_pudo"}, {"id": "bpost_012100", "lat": 50.86281, "lng": 4.37091, "name": "SCHAARBEEK ST-MARIA", "operator": "bpost", "type": "post_office", "subtype": "1", "address": "KONINKLIJKE SINTE MARIASTRAAT 98B, 1030 SCHAARBEEK", "source": "bpost_pudo"}, {"id": "bpost_41864", "lat": 50.86277, "lng": 4.37113, "name": "BBOX DISTR SCHAERBEEK ST-MARIE BPOST", "operator": "bpost", "type": "locker", "subtype": "4", "address": "KONINKLIJKE SINTE MARIASTRAAT 98B, 1030 SCHAARBEEK", "source": "bpost_pudo"}, {"id": "bpost_640013", "lat": 50.84867, "lng": 4.31963, "name": "OUEST TRANSFERT", "operator": "bpost", "type": "post_point", "subtype": "2", "address": "NINOOFSESTEENWEG 211, 1080 SINT-JANS-MOLENBEEK", "source": "bpost_pudo"}, {"id": "bpost_41483", "lat": 50.82875, "lng": 4.36806, "name": "BBOX DELHAIZE FLAGEY", "operator": "bpost", "type": "locker", "subtype": "4", "address": "DE HENNINSTRAAT 18-22, 1050 ELSENE", "source": "bpost_pudo"}, {"id": "bpost_42285", "lat": 50.85683, "lng": 4.32342, "name": "BBOX LIDL OSSEGHEM", "operator": "bpost", "type": "locker", "subtype": "4", "address": "STEENWEG OP GENT 310, 1080 SINT-JANS-MOLENBEEK", "source": "bpost_pudo"}, {"id": "bpost_636916", "lat": 50.8265, "lng": 4.34425, "name": "POUYA.", "operator": "bpost", "type": "post_point", "subtype": "2", "address": "ALSEMBERGSE STEENWEG 9, 1060 SINT-GILLIS", "source": "bpost_pudo"}, {"id": "bpost_17507", "lat": 50.8323, "lng": 4.37546, "name": "BBOX-AUTOM ELSENE WERY BPOST", "operator": "bpost", "type": "locker", "subtype": "4", "address": "WERYSTRAAT 1, 1050 ELSENE", "source": "bpost_pudo"}, {"id": "bpost_002500", "lat": 50.83232, "lng": 4.37558, "name": "ELSENE KROON WERY", "operator": "bpost", "type": "post_office", "subtype": "1", "address": "WERYSTRAAT 1, 1050 ELSENE", "source": "bpost_pudo"}, {"id": "bpost_823180", "lat": 50.83639, "lng": 4.38102, "name": "BOEKHANDEL GRAY ETTERBEEK", "operator": "bpost", "type": "post_point", "subtype": "2", "address": "GRAYSTRAAT 3, 1040 ETTERBEEK", "source": "bpost_pudo"}, {"id": "bpost_41786", "lat": 50.82716, "lng": 4.33786, "name": "BBOX BOSNILAV SAINT-GILLLES", "operator": "bpost", "type": "locker", "subtype": "4", "address": "BOSNIËSTRAAT 66, 1060 SINT-GILLIS", "source": "bpost_pudo"}, {"id": "bpost_37044", "lat": 50.83447, "lng": 4.37949, "name": "BBOX LUKOIL R GRAY", "operator": "bpost", "type": "locker", "subtype": "4", "address": "GRAYSTRAAT 69, 1040 ETTERBEEK", "source": "bpost_pudo"}, {"id": "bpost_42287", "lat": 50.84805, "lng": 4.31801, "name": "BBOX LIDL OUEST-WEST MOLENBEEK", "operator": "bpost", "type": "locker", "subtype": "4", "address": "NINOOFSESTEENWEG 256, 1080 SINT-JANS-MOLENBEEK", "source": "bpost_pudo"}, {"id": "bpost_36941", "lat": 50.83311, "lng": 4.37874, "name": "BBOX LIDL GRAY-IXE", "operator": "bpost", "type": "locker", "subtype": "4", "address": "GRAYSTRAAT 138, 1050 ELSENE", "source": "bpost_pudo"}, {"id": "bpost_100924", "lat": 50.82511, "lng": 4.34397, "name": "DAGBLADHANDEL SAINT-GILLES", "operator": "bpost", "type": "post_point", "subtype": "2", "address": "ADOLPHE DEMEURLAAN 65, 1060 SINT-GILLIS", "source": "bpost_pudo"}, {"id": "bpost_632511", "lat": 50.85574, "lng": 4.38367, "name": "CORNER SHOP", "operator": "bpost", "type": "post_point", "subtype": "2", "address": "KOLONEL BREMERPLEIN 117, 1030 SCHAARBEEK", "source": "bpost_pudo"}, {"id": "bpost_640165", "lat": 50.84679, "lng": 4.38718, "name": "SEDIQI", "operator": "bpost", "type": "post_point", "subtype": "2", "address": "MARGARETASQUARE 29, 1000 BRUSSEL", "source": "bpost_pudo"}, {"id": "bpost_638146", "lat": 50.8672, "lng": 4.36566, "name": "BASSOY ORHAN", "operator": "bpost", "type": "post_point", "subtype": "2", "address": "KEULENSTRAAT 39, 1030 SCHAARBEEK", "source": "bpost_pudo"}, {"id": "bpost_42159", "lat": 50.85579, "lng": 4.38427, "name": "BBOX LAVOIR BREMER", "operator": "bpost", "type": "locker", "subtype": "4", "address": "KOLONEL BREMERPLEIN 118, 1030 SCHAARBEEK", "source": "bpost_pudo"}, {"id": "bpost_101021", "lat": 50.86823, "lng": 4.34145, "name": "DAGBLADHANDEL L'ESCAUT NEW", "operator": "bpost", "type": "post_point", "subtype": "2", "address": "JUBELFEESTLAAN 189, 1080 SINT-JANS-MOLENBEEK", "source": "bpost_pudo"}, {"id": "bpost_43023", "lat": 50.86715, "lng": 4.33648, "name": "BBOX Q8 EASY BELGICA", "operator": "bpost", "type": "locker", "subtype": "4", "address": "BELGICALAAN 56, 1080 SINT-JANS-MOLENBEEK", "source": "bpost_pudo"}, {"id": "bpost_001900", "lat": 50.85839, "lng": 4.3826, "name": "SCHAARBEEK ROGIER", "operator": "bpost", "type": "post_office", "subtype": "1", "address": "ROGIERLAAN 162, 1030 SCHAARBEEK", "source": "bpost_pudo"}, {"id": "bpost_41855", "lat": 50.85847, "lng": 4.38269, "name": "BBOX SCHAERBEEK ROGIER BPOST", "operator": "bpost", "type": "locker", "subtype": "4", "address": "ROGIERLAAN 162, 1030 SCHAARBEEK", "source": "bpost_pudo"}, {"id": "bpost_42186", "lat": 50.86857, "lng": 4.34123, "name": "BBOX LAVOIR JUBILÉ", "operator": "bpost", "type": "locker", "subtype": "4", "address": "JUBELFEESTLAAN 184, 1080 SINT-JANS-MOLENBEEK", "source": "bpost_pudo"}, {"id": "bpost_822720", "lat": 50.82348, "lng": 4.35217, "name": "DBH MA CAMPAGNE ST GILLIS", "operator": "bpost", "type": "post_point", "subtype": "2", "address": "WATERLOSE STEENWEG 331, 1060 SINT-GILLIS", "source": "bpost_pudo"}, {"id": "bpost_42107", "lat": 50.85847, "lng": 4.38302, "name": "BBOX SPEED QUEEN", "operator": "bpost", "type": "locker", "subtype": "4", "address": "ROGIERLAAN 168, 1030 SCHAARBEEK", "source": "bpost_pudo"}, {"id": "bpost_41938", "lat": 50.85644, "lng": 4.31801, "name": "BBOX DELHAIZE KARREVELD", "operator": "bpost", "type": "locker", "subtype": "4", "address": "DE RUDDERSTRAAT 32, 1080 SINT-JANS-MOLENBEEK", "source": "bpost_pudo"}, {"id": "bpost_637445", "lat": 50.86921, "lng": 4.36245, "name": "ELECTRO SAT", "operator": "bpost", "type": "post_point", "subtype": "2", "address": "KONINGINNELAAN 132, 1030 SCHAARBEEK", "source": "bpost_pudo"}, {"id": "bpost_010400", "lat": 50.85322, "lng": 4.31513, "name": "MOLENBEEK OSSEGEM", "operator": "bpost", "type": "post_office", "subtype": "1", "address": "MELOPEESTRAAT 36, 1080 SINT-JANS-MOLENBEEK", "source": "bpost_pudo"}, {"id": "bpost_100453", "lat": 50.84924, "lng": 4.38974, "name": "NOYER PRESS", "operator": "bpost", "type": "post_point", "subtype": "2", "address": "ARDENSE JAGERSPLEIN 2, 1030 SCHAARBEEK", "source": "bpost_pudo"}, {"id": "bpost_41935", "lat": 50.85951, "lng": 4.3193, "name": "BBOX AUTOM CLEAN&GO", "operator": "bpost", "type": "locker", "subtype": "4", "address": "PARUCKSTRAAT 32, 1080 SINT-JANS-MOLENBEEK", "source": "bpost_pudo"}, {"id": "bpost_41809", "lat": 50.83699, "lng": 4.38701, "name": "BBOX ETTERBEEK PHARMA", "operator": "bpost", "type": "locker", "subtype": "4", "address": "OUDERGEMLAAN 134-138, 1040 ETTERBEEK", "source": "bpost_pudo"}, {"id": "bpost_641847", "lat": 50.854, "lng": 4.38837, "name": "S&N PRESSE.", "operator": "bpost", "type": "post_point", "subtype": "2", "address": "GROTE BOSSTRAAT 147, 1030 SCHAARBEEK", "source": "bpost_pudo"}, {"id": "bpost_639925", "lat": 50.85562, "lng": 4.31569, "name": "PIRON-PRESS", "operator": "bpost", "type": "post_point", "subtype": "2", "address": "REIMOND STIJNSSTRAAT 113, 1080 SINT-JANS-MOLENBEEK", "source": "bpost_pudo"}, {"id": "bpost_42158", "lat": 50.869, "lng": 4.33622, "name": "BBOX DELHAIZE CH WOESTE JETTE", "operator": "bpost", "type": "locker", "subtype": "4", "address": "AUGUSTE HAINAUTSTRAAT 28, 1090 JETTE", "source": "bpost_pudo"}, {"id": "bpost_42277", "lat": 50.82214, "lng": 4.35512, "name": "BBOX DELHAIZE MA CAMPAGNE", "operator": "bpost", "type": "locker", "subtype": "4", "address": "WATERLOOSE STEENWEG 412G, 1050 ELSENE", "source": "bpost_pudo"}, {"id": "bpost_41748", "lat": 50.87101, "lng": 4.34855, "name": "BBOX BE-HERE BRUXELLES", "operator": "bpost", "type": "locker", "subtype": "4", "address": "DIEUDONNE LEFEVRESTRAAT 4, 1020 BRUSSEL", "source": "bpost_pudo"}, {"id": "bpost_19172", "lat": 50.82379, "lng": 4.3669, "name": "BBOX TRIBES BXL CN", "operator": "bpost", "type": "locker", "subtype": "4", "address": "LOUIZALAAN 279, 1050 BRUSSEL", "source": "bpost_pudo"}, {"id": "bpost_42536", "lat": 50.82662, "lng": 4.32843, "name": "BBOX LDL-MÉRODE", "operator": "bpost", "type": "locker", "subtype": "4", "address": "DE MÉRODESTRAAT 403, 1190 VORST", "source": "bpost_pudo"}, {"id": "bpost_101074", "lat": 50.86644, "lng": 4.37517, "name": "DAGBLADH. LE PRINTEMPS", "operator": "bpost", "type": "post_point", "subtype": "2", "address": "HAACHTSESTEENWEG 339, 1030 SCHAARBEEK", "source": "bpost_pudo"}, {"id": "bpost_001000", "lat": 50.84379, "lng": 4.3126, "name": "ANDERLECHT DEMOSTENES", "operator": "bpost", "type": "post_office", "subtype": "1", "address": "MAURICE HERBETTELAAN 2, 1070 ANDERLECHT", "source": "bpost_pudo"}, {"id": "bpost_640471", "lat": 50.83682, "lng": 4.38813, "name": "GENERAL SHOP", "operator": "bpost", "type": "post_point", "subtype": "2", "address": "GENERAAL LEMANSTRAAT 156-158, 1040 ETTERBEEK", "source": "bpost_pudo"}, {"id": "bpost_43009", "lat": 50.82352, "lng": 4.36825, "name": "BBOX-AUTOM SHOP & GO DELHAIZE LOUISE", "operator": "bpost", "type": "locker", "subtype": "4", "address": "LOUIZALAAN 306-310, 1050 BRUSSEL", "source": "bpost_pudo"}, {"id": "bpost_100989", "lat": 50.82303, "lng": 4.36775, "name": "LOUISE PRESS & SHOP", "operator": "bpost", "type": "post_point", "subtype": "2", "address": "LOUIZALAAN 309, 1050 BRUSSEL", "source": "bpost_pudo"}, {"id": "bpost_638898", "lat": 50.86973, "lng": 4.36943, "name": "EYVAZOGLU + LOTTO", "operator": "bpost", "type": "post_point", "subtype": "2", "address": "PAVILJOENSTRAAT 99A, 1030 SCHAARBEEK", "source": "bpost_pudo"}, {"id": "bpost_42520", "lat": 50.82156, "lng": 4.36188, "name": "BBOX BOUTIQUE CHÂTELAIN", "operator": "bpost", "type": "locker", "subtype": "4", "address": "TENBOSSTRAAT 83B, 1050 ELSENE", "source": "bpost_pudo"}, {"id": "bpost_37156", "lat": 50.85004, "lng": 4.31058, "name": "BBOX RUE LAITERIE", "operator": "bpost", "type": "locker", "subtype": "4", "address": "MELKERIJSTRAAT 86, 1070 ANDERLECHT", "source": "bpost_pudo"}, {"id": "bpost_42137", "lat": 50.82081, "lng": 4.34402, "name": "BBOX LAVOIR ALBERT", "operator": "bpost", "type": "locker", "subtype": "4", "address": "ALBERTLAAN 69, 1190 VORST", "source": "bpost_pudo"}, {"id": "bpost_100887", "lat": 50.82414, "lng": 4.32959, "name": "DAGBLH. LA FORESTOISE", "operator": "bpost", "type": "post_point", "subtype": "2", "address": "WIELEMANS CEUPPENSLAAN 67, 1190 VORST", "source": "bpost_pudo"}, {"id": "bpost_41871", "lat": 50.83458, "lng": 4.31416, "name": "BBOX SPEED QUEEN VICTOR R.", "operator": "bpost", "type": "locker", "subtype": "4", "address": "VICTOR RAUTERSTRAAT 4, 1070 ANDERLECHT", "source": "bpost_pudo"}, {"id": "bpost_641396", "lat": 50.84778, "lng": 4.30921, "name": "THE ONE", "operator": "bpost", "type": "post_point", "subtype": "2", "address": "NINOOFSE STEENWEG 432, 1070 ANDERLECHT", "source": "bpost_pudo"}, {"id": "bpost_638905", "lat": 50.87359, "lng": 4.34617, "name": "LUCKY SHOP", "operator": "bpost", "type": "post_point", "subtype": "2", "address": "EMILE BOCKSTAELLAAN 150, 1020 BRUSSEL", "source": "bpost_pudo"}, {"id": "bpost_641179", "lat": 50.81933, "lng": 4.35392, "name": "MAISON CHEIKH", "operator": "bpost", "type": "post_point", "subtype": "2", "address": "EMILE BOUILLIOTSTRAAT 16, 1050 ELSENE", "source": "bpost_pudo"}, {"id": "bpost_41713", "lat": 50.81988, "lng": 4.36084, "name": "BBOX DELHAIZE MOLIÈRE", "operator": "bpost", "type": "locker", "subtype": "4", "address": "WATERLOOSE STEENWEG 536, 1050 ELSENE", "source": "bpost_pudo"}, {"id": "bpost_100974", "lat": 50.83005, "lng": 4.38641, "name": "LIBRAIRIE SAINT ANTOINE", "operator": "bpost", "type": "post_point", "subtype": "2", "address": "SINT-ANTOONPLEIN 33-34, 1040 ETTERBEEK", "source": "bpost_pudo"}, {"id": "bpost_636316", "lat": 50.81886, "lng": 4.35114, "name": "HOLYWAY SHOP", "operator": "bpost", "type": "post_point", "subtype": "2", "address": "BRUGMANNLAAN 113, 1190 VORST", "source": "bpost_pudo"}, {"id": "bpost_41800", "lat": 50.85831, "lng": 4.31056, "name": "BBOX INTERMARCHE MOLENBEEK", "operator": "bpost", "type": "locker", "subtype": "4", "address": "STEENWEG OP GENT 608-610, 1080 SINT-JANS-MOLENBEEK", "source": "bpost_pudo"}, {"id": "bpost_41970", "lat": 50.85309, "lng": 4.30765, "name": "BBOX CARREFOUR EXPRESS MOLENBEEK", "operator": "bpost", "type": "locker", "subtype": "4", "address": "TAMARISKENLAAN 23, 1080 SINT-JANS-MOLENBEEK", "source": "bpost_pudo"}, {"id": "bpost_42321", "lat": 50.82902, "lng": 4.38745, "name": "BBOX DELHAIZE SAINT-ANTOINE", "operator": "bpost", "type": "locker", "subtype": "4", "address": "NOTHOMBSTRAAT 50, 1040 ETTERBEEK", "source": "bpost_pudo"}, {"id": "bpost_42617", "lat": 50.85339, "lng": 4.39567, "name": "BBOX THE BARN SCHAERBEEK", "operator": "bpost", "type": "locker", "subtype": "4", "address": "MILCAMPSLAAN 166, 1030 SCHAARBEEK", "source": "bpost_pudo"}, {"id": "bpost_38206", "lat": 50.87356, "lng": 4.33652, "name": "BBOX N-D LOURDES JETTE", "operator": "bpost", "type": "locker", "subtype": "4", "address": "ONZE-LIEVE-VROUW VAN LOURDESLAAN 32, 1090 JETTE", "source": "bpost_pudo"}, {"id": "bpost_002800", "lat": 50.86367, "lng": 4.31522, "name": "KOEKELBERG STEENGROEVE", "operator": "bpost", "type": "post_office", "subtype": "1", "address": "STEENGROEFSTRAAT 21-27, 1081 KOEKELBERG", "source": "bpost_pudo"}, {"id": "bpost_818050", "lat": 50.87122, "lng": 4.37525, "name": "MEGA PRESSE SCHAERBEEK", "operator": "bpost", "type": "post_point", "subtype": "2", "address": "EUGÈNE VERBOEKHOVENPLEIN 3, 1030 SCHAARBEEK", "source": "bpost_pudo"}, {"id": "bpost_632643", "lat": 50.83039, "lng": 4.39013, "name": "PRESS SHOP BXL LA CHASSE", "operator": "bpost", "type": "post_point", "subtype": "2", "address": "STEENWEG OP WAVER 671, 1040 ETTERBEEK", "source": "bpost_pudo"}, {"id": "bpost_003100", "lat": 50.87598, "lng": 4.34721, "name": "LAKEN GEMEENTEHUIS", "operator": "bpost", "type": "post_office", "subtype": "1", "address": "TIELEMANSSTRAAT 32, 1020 BRUSSEL", "source": "bpost_pudo"}, {"id": "bpost_41997", "lat": 50.82085, "lng": 4.32808, "name": "BBOX AUTOM MEET & WASH CHARMES", "operator": "bpost", "type": "locker", "subtype": "4", "address": "STEENBEUKSTRAAT 54, 1190 VORST", "source": "bpost_pudo"}, {"id": "bpost_101096", "lat": 50.83716, "lng": 4.39635, "name": "DAGBLADHANDEL SAINT PIERRE", "operator": "bpost", "type": "post_point", "subtype": "2", "address": "SINT-PIETERSPLEIN 18-19, 1040 ETTERBEEK", "source": "bpost_pudo"}, {"id": "bpost_890200", "lat": 50.81793, "lng": 4.36442, "name": "CARREFOUR MARKET MOLIÈRE", "operator": "bpost", "type": "post_point", "subtype": "2", "address": "WATERLOOSE STEENWEG 609, 1050 ELSENE", "source": "bpost_pudo"}, {"id": "bpost_17040", "lat": 50.81782, "lng": 4.3643, "name": "BBOX-AUTOM CARREFOUR ELSENE", "operator": "bpost", "type": "locker", "subtype": "4", "address": "WATERLOOSE STEENWEG 609, 1050 ELSENE", "source": "bpost_pudo"}, {"id": "bpost_100921", "lat": 50.87641, "lng": 4.35098, "name": "DBH MARIE CHRISTINE 163", "operator": "bpost", "type": "post_point", "subtype": "2", "address": "MARIA-CHRISTINASTRAAT 163, 1020 BRUSSEL", "source": "bpost_pudo"}, {"id": "bpost_808170", "lat": 50.85011, "lng": 4.39873, "name": "DAGBL DU DIAMANT", "operator": "bpost", "type": "post_point", "subtype": "2", "address": "DIAMANTLAAN 160, 1030 SCHAARBEEK", "source": "bpost_pudo"}, {"id": "bpost_100814", "lat": 50.85476, "lng": 4.39727, "name": "DAGBL EXPRESS MEISER", "operator": "bpost", "type": "post_point", "subtype": "2", "address": "LEUVENSESTEENWEG 511, 1030 SCHAARBEEK", "source": "bpost_pudo"}, {"id": "bpost_37551", "lat": 50.87649, "lng": 4.35102, "name": "BBOX LIB LAEKEN", "operator": "bpost", "type": "locker", "subtype": "4", "address": "MARIA-CHRISTINASTRAAT 163, 1020 BRUSSEL", "source": "bpost_pudo"}, {"id": "bpost_642271", "lat": 50.83503, "lng": 4.30787, "name": "FAMI WAYEZ", "operator": "bpost", "type": "post_point", "subtype": "2", "address": "WAYEZSTRAAT 208, 1070 ANDERLECHT", "source": "bpost_pudo"}, {"id": "bpost_35298", "lat": 50.8265, "lng": 4.31639, "name": "BBOX INDUSTRIE AND", "operator": "bpost", "type": "locker", "subtype": "4", "address": "INDUSTRIELAAN 16, 1070 ANDERLECHT", "source": "bpost_pudo"}, {"id": "bpost_100366", "lat": 50.85095, "lng": 4.30457, "name": "DAGBLADHANDEL SCHEUTBOSCH", "operator": "bpost", "type": "post_point", "subtype": "2", "address": "SCHEUTBOSCHLAAN 22, 1080 SINT-JANS-MOLENBEEK", "source": "bpost_pudo"}, {"id": "bpost_007000", "lat": 50.83044, "lng": 4.39199, "name": "ETTERBEEK JACHT", "operator": "bpost", "type": "post_office", "subtype": "1", "address": "VELDSTRAAT 49-51, 1040 ETTERBEEK", "source": "bpost_pudo"}, {"id": "bpost_36973", "lat": 50.8257, "lng": 4.38614, "name": "BBOX STUDHUIS VUB", "operator": "bpost", "type": "locker", "subtype": "4", "address": "NIEUWELAAN 147, 1040 ETTERBEEK", "source": "bpost_pudo"}, {"id": "bpost_641257", "lat": 50.86581, "lng": 4.38844, "name": "LIBRAIRIE LATINIS.", "operator": "bpost", "type": "post_point", "subtype": "2", "address": "GUSTAVE LATINISLAAN 71, 1030 SCHAARBEEK", "source": "bpost_pudo"}, {"id": "bpost_41225", "lat": 50.81748, "lng": 4.33872, "name": "BBOX INTERMARCHÉ FOREST", "operator": "bpost", "type": "locker", "subtype": "4", "address": "ALSEMBERGSE STEENWEG 303, 1190 VORST", "source": "bpost_pudo"}, {"id": "bpost_101026", "lat": 50.82237, "lng": 4.32275, "name": "À LA PIÈCE MANQUANTE", "operator": "bpost", "type": "post_point", "subtype": "2", "address": "LUTTREBRUGLAAN 87, 1190 VORST", "source": "bpost_pudo"}, {"id": "bpost_39817", "lat": 50.82184, "lng": 4.32386, "name": "BBOX LIDL FOREST", "operator": "bpost", "type": "locker", "subtype": "4", "address": "VAN VOLXEMLAAN 290-294, 1190 VORST", "source": "bpost_pudo"}, {"id": "bpost_637330", "lat": 50.81729, "lng": 4.36584, "name": "CHEZ LEANDRO.", "operator": "bpost", "type": "post_point", "subtype": "2", "address": "WATERLOOSE STEENWEG 646, 1050 ELSENE", "source": "bpost_pudo"}, {"id": "bpost_003500", "lat": 50.83534, "lng": 4.30649, "name": "ANDERLECHT DAPPERHEID", "operator": "bpost", "type": "post_office", "subtype": "1", "address": "DAPPERHEIDSPLEIN 32, 1070 ANDERLECHT", "source": "bpost_pudo"}, {"id": "bpost_41815", "lat": 50.83531, "lng": 4.30635, "name": "BBOX ANDERLECHT VAILLANCE BPOST", "operator": "bpost", "type": "locker", "subtype": "4", "address": "DAPPERHEIDSPLEIN 32, 1070 ANDERLECHT", "source": "bpost_pudo"}, {"id": "bpost_40399", "lat": 50.87304, "lng": 4.32689, "name": "BBOX INTERMARCHÉ JETTE", "operator": "bpost", "type": "locker", "subtype": "4", "address": "LEOPOLD I STRAAT 513, 1090 JETTE", "source": "bpost_pudo"}, {"id": "bpost_101209", "lat": 50.87736, "lng": 4.34929, "name": "DAGBLADHANDEL LAKENOISE NEW", "operator": "bpost", "type": "post_point", "subtype": "2", "address": "STEFANIASTRAAT 157, 1020 BRUSSEL", "source": "bpost_pudo"}, {"id": "bpost_007700", "lat": 50.81697, "lng": 4.33723, "name": "VORST HOOGTE 100", "operator": "bpost", "type": "post_office", "subtype": "1", "address": "HOOGTE HONDERDPLEIN 12, 1190 VORST", "source": "bpost_pudo"}, {"id": "bpost_100910", "lat": 50.87255, "lng": 4.32459, "name": "PRESS SHOP REINE ASTRID", "operator": "bpost", "type": "post_point", "subtype": "2", "address": "KONINGIN ASTRIDPLEIN 22, 1090 JETTE", "source": "bpost_pudo"}, {"id": "bpost_37048", "lat": 50.82001, "lng": 4.32472, "name": "BBOX LUKOIL FOREST", "operator": "bpost", "type": "locker", "subtype": "4", "address": "BRITS TWEEDELEGERLAAN 15, 1190 VORST", "source": "bpost_pudo"}, {"id": "bpost_006900", "lat": 50.83912, "lng": 4.40059, "name": "ETTERBEEK TERVUREN", "operator": "bpost", "type": "post_office", "subtype": "1", "address": "TERVURENLAAN 32-34, 1040 ETTERBEEK", "source": "bpost_pudo"}, {"id": "bpost_640191", "lat": 50.87397, "lng": 4.3773, "name": "EASY DAY", "operator": "bpost", "type": "post_point", "subtype": "2", "address": "PRINSES ELISABETHLAAN 69, 1030 SCHAARBEEK", "source": "bpost_pudo"}, {"id": "bpost_40504", "lat": 50.8397, "lng": 4.40118, "name": "BBOX BPOST ETTERBEEK TERVUEREN", "operator": "bpost", "type": "locker", "subtype": "4", "address": "TERVURENLAAN 32-34, 1040 ETTERBEEK", "source": "bpost_pudo"}, {"id": "bpost_101161", "lat": 50.84375, "lng": 4.30116, "name": "LIBR. PRINCE DE LIEGE N", "operator": "bpost", "type": "post_point", "subtype": "2", "address": "PRINS VAN LUIKLAAN 96, 1070 ANDERLECHT", "source": "bpost_pudo"}, {"id": "bpost_101355", "lat": 50.8585, "lng": 4.30448, "name": "DEON SHOP", "operator": "bpost", "type": "post_point", "subtype": "2", "address": "MIRTENLAAN 48, 1080 SINT-JANS-MOLENBEEK", "source": "bpost_pudo"}, {"id": "bpost_42064", "lat": 50.86394, "lng": 4.30891, "name": "BBOXAUTOM LDL COIN SEBRECHTS MOLENBEEK", "operator": "bpost", "type": "locker", "subtype": "4", "address": "FRANÇOIS SEBRECHTSLAAN 43, 1080 SINT-JANS-MOLENBEEK", "source": "bpost_pudo"}, {"id": "bpost_101223", "lat": 50.81557, "lng": 4.36708, "name": "SERVICE POST BASCULE", "operator": "bpost", "type": "post_point", "subtype": "2", "address": "WATERLOOSE STEENWEG 715, 1180 UKKEL", "source": "bpost_pudo"}, {"id": "bpost_37524", "lat": 50.85551, "lng": 4.40118, "name": "BBOX GREAT MARKET", "operator": "bpost", "type": "locker", "subtype": "4", "address": "LEUVENSESTEENWEG 650, 1030 SCHAARBEEK", "source": "bpost_pudo"}, {"id": "bpost_013100", "lat": 50.81394, "lng": 4.34929, "name": "UKKEL VANDERKINDERE", "operator": "bpost", "type": "post_office", "subtype": "1", "address": "VANDERKINDERESTRAAT 171, 1180 UKKEL", "source": "bpost_pudo"}, {"id": "bpost_42535", "lat": 50.82807, "lng": 4.39444, "name": "BBOX SPEED QUEEN-CH DE WAVRE", "operator": "bpost", "type": "locker", "subtype": "4", "address": "STEENWEG OP WAVER 876, 1040 ETTERBEEK", "source": "bpost_pudo"}, {"id": "bpost_101167", "lat": 50.86902, "lng": 4.38954, "name": "LIBRAIRIE TERDELT", "operator": "bpost", "type": "post_point", "subtype": "2", "address": "DOKTER DEJASELAAN 26, 1030 SCHAARBEEK", "source": "bpost_pudo"}, {"id": "bpost_41854", "lat": 50.8138, "lng": 4.34929, "name": "BBOX UCCLE VANDERKINDERE BPOST", "operator": "bpost", "type": "locker", "subtype": "4", "address": "VANDERKINDERESTRAAT 171, 1180 UKKEL", "source": "bpost_pudo"}, {"id": "bpost_41753", "lat": 50.81522, "lng": 4.3671, "name": "BBOX CARREFOUR MARKET BASC.UCCLE", "operator": "bpost", "type": "locker", "subtype": "4", "address": "WATERLOOSE STEENWEG 719, 1180 UKKEL", "source": "bpost_pudo"}, {"id": "bpost_003700", "lat": 50.87624, "lng": 4.32942, "name": "JETTE FERDINAND LENOIR", "operator": "bpost", "type": "post_office", "subtype": "1", "address": "FERDINAND LENOIRSTRAAT 29, 1090 JETTE", "source": "bpost_pudo"}, {"id": "bpost_101187", "lat": 50.87192, "lng": 4.38492, "name": "LIBRAIRIE HUGO", "operator": "bpost", "type": "post_point", "subtype": "2", "address": "HELMETSESTEENWEG 137, 1030 SCHAARBEEK", "source": "bpost_pudo"}, {"id": "bpost_41134", "lat": 50.87635, "lng": 4.32951, "name": "BBOX BPOST JETTE", "operator": "bpost", "type": "locker", "subtype": "4", "address": "FERDINAND LENOIRSTRAAT 29, 1090 JETTE", "source": "bpost_pudo"}, {"id": "bpost_825010", "lat": 50.8198, "lng": 4.38266, "name": "QUARTIER GENERAL ELSENE", "operator": "bpost", "type": "post_point", "subtype": "2", "address": "GENERAAL JACQUESLAAN 117, 1050 ELSENE", "source": "bpost_pudo"}, {"id": "bpost_41889", "lat": 50.81466, "lng": 4.36702, "name": "BBOX LAVOIR VDK", "operator": "bpost", "type": "locker", "subtype": "4", "address": "VANDERKINDERESTRAAT 495, 1180 UKKEL", "source": "bpost_pudo"}, {"id": "bpost_37619", "lat": 50.82268, "lng": 4.38935, "name": "BBOX ESSOETTERBEEK", "operator": "bpost", "type": "locker", "subtype": "4", "address": "GENERAAL JACQUESLAAN 222, 1040 ETTERBEEK", "source": "bpost_pudo"}, {"id": "bpost_42300", "lat": 50.87947, "lng": 4.3399, "name": "BBOX-AUTOM LIDL STEYLS LAKEN", "operator": "bpost", "type": "locker", "subtype": "4", "address": "STEYLSSTRAAT 111, 1020 BRUSSEL", "source": "bpost_pudo"}, {"id": "bpost_40358", "lat": 50.8693, "lng": 4.312, "name": "BBOX BPOST GANSHOREN BASILIQUE", "operator": "bpost", "type": "locker", "subtype": "4", "address": "A.EN M. HELLINCKXSTRAAT 26, 1083 GANSHOREN", "source": "bpost_pudo"}, {"id": "bpost_38199", "lat": 50.87894, "lng": 4.33609, "name": "BBOX BRAVOURE JETTE", "operator": "bpost", "type": "locker", "subtype": "4", "address": "DAPPERHEIDSSTRAAT DISTRIB, 1090 JETTE", "source": "bpost_pudo"}, {"id": "bpost_007900", "lat": 50.86934, "lng": 4.31203, "name": "GANSHOREN BASILIEK", "operator": "bpost", "type": "post_office", "subtype": "1", "address": "A.EN M. HELLINCKXSTRAAT 26, 1083 GANSHOREN", "source": "bpost_pudo"}, {"id": "bpost_640452", "lat": 50.87725, "lng": 4.32853, "name": "LIBRAIRIE THEODOR.", "operator": "bpost", "type": "post_point", "subtype": "2", "address": "LÉON THEODORSTRAAT 160, 1090 JETTE", "source": "bpost_pudo"}, {"id": "bpost_40515", "lat": 50.82229, "lng": 4.38952, "name": "BBOX GARE ETTERBEEK", "operator": "bpost", "type": "locker", "subtype": "4", "address": "GENERAAL JACQUESLAAN 263F, 1050 ELSENE", "source": "bpost_pudo"}, {"id": "bpost_100885", "lat": 50.84681, "lng": 4.29759, "name": "LIBRAIRIE SYMA", "operator": "bpost", "type": "post_point", "subtype": "2", "address": "NINOOFSE STEENWEG 633, 1070 ANDERLECHT", "source": "bpost_pudo"}, {"id": "bpost_41729", "lat": 50.8283, "lng": 4.30563, "name": "BBOX LOFT WASH-ZAMENHOF", "operator": "bpost", "type": "locker", "subtype": "4", "address": "DOKTER ZAMENHOFLAAN 35, 1070 ANDERLECHT", "source": "bpost_pudo"}, {"id": "bpost_637232", "lat": 50.87649, "lng": 4.3789, "name": "AMMAR CALL SHOP", "operator": "bpost", "type": "post_point", "subtype": "2", "address": "PRINSES ELISABETHLAAN 150, 1030 SCHAARBEEK", "source": "bpost_pudo"}, {"id": "bpost_013800", "lat": 50.87313, "lng": 4.38667, "name": "SCHAARBEEK HELMETSESTEENWG", "operator": "bpost", "type": "post_office", "subtype": "1", "address": "HELMETSESTEENWEG 200, 1030 SCHAARBEEK", "source": "bpost_pudo"}, {"id": "bpost_41915", "lat": 50.8731, "lng": 4.3868, "name": "BBOX SCHAERBEEK HELMET BPOST", "operator": "bpost", "type": "locker", "subtype": "4", "address": "HELMETSESTEENWEG 200, 1030 SCHAARBEEK", "source": "bpost_pudo"}, {"id": "bpost_637340", "lat": 50.88113, "lng": 4.34751, "name": "LE CORNER", "operator": "bpost", "type": "post_point", "subtype": "2", "address": "EMILE BOCKSTAELLAAN 334, 1020 BRUSSEL", "source": "bpost_pudo"}, {"id": "bpost_812280", "lat": 50.82746, "lng": 4.30575, "name": "DAGBL LE CANARD DECHAÎNÉ", "operator": "bpost", "type": "post_point", "subtype": "2", "address": "FRANS VAN KALKENLAAN 4, 1070 ANDERLECHT", "source": "bpost_pudo"}, {"id": "bpost_41814", "lat": 50.87806, "lng": 4.32713, "name": "BBOX DELHAIZE THEODOR JETTE", "operator": "bpost", "type": "locker", "subtype": "4", "address": "HENRI VAN BORTONNESTRAAT 68, 1090 JETTE", "source": "bpost_pudo"}, {"id": "bpost_38209", "lat": 50.8765, "lng": 4.32255, "name": "BBOX ST LEGRELLE JETTE", "operator": "bpost", "type": "locker", "subtype": "4", "address": "STANISLAS LEGRELLESTRAAT 36, 1090 JETTE", "source": "bpost_pudo"}, {"id": "bpost_37417", "lat": 50.87918, "lng": 4.37284, "name": "BBOX DOCKS BRUXSEL", "operator": "bpost", "type": "locker", "subtype": "4", "address": "LAMBERMONTLAAN 1, 1000 BRUSSEL", "source": "bpost_pudo"}, {"id": "bpost_41643", "lat": 50.84246, "lng": 4.42729, "name": "BBOX TOMBERG CARREFOUR", "operator": "bpost", "type": "locker", "subtype": "4", "address": "TOMBERG 96-114, 1200 SINT-LAMBRECHTS-WOLUWE", "source": "bpost_pudo"}, {"id": "bpost_643168", "lat": 50.84451, "lng": 4.41756, "name": "LIBRAIRIE MEUDON", "operator": "bpost", "type": "post_point", "subtype": "2", "address": "RIDDER KONINGLAAN 57, 1200 SINT-LAMBRECHTS-WOLUWE", "source": "bpost_pudo"}, {"id": "bpost_003900", "lat": 50.83711, "lng": 4.43123, "name": "WOLUWE THIELEMANS", "operator": "bpost", "type": "post_office", "subtype": "1", "address": "CHARLES THIELEMANSLAAN 22, 1150 SINT-PIETERS-WOLUWE", "source": "bpost_pudo"}, {"id": "bpost_42778", "lat": 50.83696, "lng": 4.43084, "name": "BBOX-AUTOM WOLUWE THIELEMANS BPOST", "operator": "bpost", "type": "locker", "subtype": "4", "address": "CHARLES THIELEMANSLAAN 22, 1150 SINT-PIETERS-WOLUWE", "source": "bpost_pudo"}, {"id": "bpost_42725", "lat": 50.84589, "lng": 4.43583, "name": "BBOX-AUTOM \tST-LAMBERT BPOST", "operator": "bpost", "type": "locker", "subtype": "4", "address": "SINT-LAMBERTUSSTRAAT 139, 1200 SINT-LAMBRECHTS-WOLUWE", "source": "bpost_pudo"}, {"id": "bpost_42266", "lat": 50.84518, "lng": 4.4365, "name": "BBOX CARREFOUR SHOPPING WOLUWE", "operator": "bpost", "type": "locker", "subtype": "4", "address": "SINT-LAMBERTUSSTRAAT 202, 1200 SINT-LAMBRECHTS-WOLUWE", "source": "bpost_pudo"}, {"id": "bpost_004500", "lat": 50.84579, "lng": 4.43629, "name": "WOLUWE ST-LAMBERTUSSTR", "operator": "bpost", "type": "post_office", "subtype": "1", "address": "SINT-LAMBERTUSSTRAAT 139, 1200 SINT-LAMBRECHTS-WOLUWE", "source": "bpost_pudo"}, {"id": "bpost_806240", "lat": 50.84383, "lng": 4.4126, "name": "DAGBLH GEORGES HENRI", "operator": "bpost", "type": "post_point", "subtype": "2", "address": "GEORGES HENRILAAN 260, 1200 SINT-LAMBRECHTS-WOLUWE", "source": "bpost_pudo"}, {"id": "bpost_37823", "lat": 50.84737, "lng": 4.43832, "name": "BBOX WOLUWE SHOPPING", "operator": "bpost", "type": "locker", "subtype": "4", "address": "SINT-LAMBERTUSSTRAAT 200, 1200 SINT-LAMBRECHTS-WOLUWE", "source": "bpost_pudo"}, {"id": "bpost_101164", "lat": 50.83845, "lng": 4.4125, "name": "LE COIN LECTURE", "operator": "bpost", "type": "post_point", "subtype": "2", "address": "GEORGES EN JACQUES MARTINSTRAAT 31, 1200 SINT-LAMBRECHTS-WOLUWE", "source": "bpost_pudo"}, {"id": "bpost_642765", "lat": 50.85249, "lng": 4.42358, "name": "WOLU-PRESS (PPC)", "operator": "bpost", "type": "post_point", "subtype": "2", "address": "ANDROMEDALAAN 110, 1200 SINT-LAMBRECHTS-WOLUWE", "source": "bpost_pudo"}, {"id": "bpost_37415", "lat": 50.84278, "lng": 4.40824, "name": "BBOX CARREFOUR G. HENRI", "operator": "bpost", "type": "locker", "subtype": "4", "address": "GEORGES HENRILAAN 362, 1200 SINT-LAMBRECHTS-WOLUWE", "source": "bpost_pudo"}, {"id": "bpost_42045", "lat": 50.84746, "lng": 4.40874, "name": "BBOX-AUTOM WOLU WASH WOLUWE ST LAMBERT", "operator": "bpost", "type": "locker", "subtype": "4", "address": "GEORGES RENCYSTRAAT 8, 1200 SINT-LAMBRECHTS-WOLUWE", "source": "bpost_pudo"}, {"id": "bpost_101233", "lat": 50.85002, "lng": 4.41035, "name": "LIBR. DES CONSTELLATIONS", "operator": "bpost", "type": "post_point", "subtype": "2", "address": "MAARTLAAN 52, 1200 SINT-LAMBRECHTS-WOLUWE", "source": "bpost_pudo"}, {"id": "bpost_35948", "lat": 50.85628, "lng": 4.42745, "name": "BBOX-AUTOM SHOPP CORA WOLUWE", "operator": "bpost", "type": "locker", "subtype": "4", "address": "GEMEENSCHAPPENLAAN 101-103, 1200 SINT-LAMBRECHTS-WOLUWE", "source": "bpost_pudo"}, {"id": "bpost_19194", "lat": 50.85649, "lng": 4.41311, "name": "BBOX LIDL EVERE", "operator": "bpost", "type": "locker", "subtype": "4", "address": "LEONARD MOMMAERTSLAAN 2, 1140 EVERE", "source": "bpost_pudo"}, {"id": "bpost_41795", "lat": 50.84194, "lng": 4.45056, "name": "BBOX CARREFOUR CH. DE STOCKEL", "operator": "bpost", "type": "locker", "subtype": "4", "address": "STOKKELSE STEENWEG 302, 1200 SINT-LAMBRECHTS-WOLUWE", "source": "bpost_pudo"}, {"id": "bpost_637114", "lat": 50.85633, "lng": 4.41158, "name": "AD REYERS", "operator": "bpost", "type": "post_point", "subtype": "2", "address": "LEONARD MOMMAERTSLAAN 14-18, 1140 EVERE", "source": "bpost_pudo"}, {"id": "bpost_42640", "lat": 50.84999, "lng": 4.44893, "name": "BBOX WOLUWE ST LAMBERT EPHEC", "operator": "bpost", "type": "locker", "subtype": "4", "address": "KONRAD ADENAUERLAAN 3, 1200 SINT-LAMBRECHTS-WOLUWE", "source": "bpost_pudo"}, {"id": "bpost_41755", "lat": 50.85672, "lng": 4.40925, "name": "BBOX SCHAERBEEK RTL BELGIUM", "operator": "bpost", "type": "locker", "subtype": "4", "address": "JACQUES GEORGINLAAN DISTRIB, 1030 SCHAARBEEK", "source": "bpost_pudo"}, {"id": "bpost_100112", "lat": 50.83266, "lng": 4.44865, "name": "DAGBLAD AU BOIS 222", "operator": "bpost", "type": "post_point", "subtype": "2", "address": "BOSSTRAAT 222, 1150 SINT-PIETERS-WOLUWE", "source": "bpost_pudo"}, {"id": "bpost_637502", "lat": 50.86097, "lng": 4.42214, "name": "BERCA.BE EVERE", "operator": "bpost", "type": "post_point", "subtype": "2", "address": "LEUVENSESTEENWEG 1064, 1140 EVERE", "source": "bpost_pudo"}, {"id": "bpost_38005", "lat": 50.85142, "lng": 4.45184, "name": "BBOX CU SAINT-LUC", "operator": "bpost", "type": "locker", "subtype": "4", "address": "EMMANUEL MOUNIERLAAN 50-53, 1200 SINT-LAMBRECHTS-WOLUWE", "source": "bpost_pudo"}, {"id": "bpost_636398", "lat": 50.82655, "lng": 4.412, "name": "TOTAL CHANT D'OISEAU", "operator": "bpost", "type": "post_point", "subtype": "2", "address": "GEBROEDERS LEGRAINLAAN 76, 1150 SINT-PIETERS-WOLUWE", "source": "bpost_pudo"}, {"id": "bpost_37701", "lat": 50.86143, "lng": 4.42026, "name": "BBOX TRAFIC EVERE", "operator": "bpost", "type": "locker", "subtype": "4", "address": "CICEROLAAN 7, 1140 EVERE", "source": "bpost_pudo"}, {"id": "bpost_37728", "lat": 50.85484, "lng": 4.44869, "name": "BBOX XIOR ALMA", "operator": "bpost", "type": "locker", "subtype": "4", "address": "LENNEKE MARELAAN 2, 1932 ZAVENTEM", "source": "bpost_pudo"}, {"id": "bpost_41808", "lat": 50.82665, "lng": 4.41124, "name": "BBOX CARREFOUR EUROPE WOLUWE", "operator": "bpost", "type": "locker", "subtype": "4", "address": "GEBROEDERS LEGRAINLAAN 75, 1150 SINT-PIETERS-WOLUWE", "source": "bpost_pudo"}, {"id": "bpost_100425", "lat": 50.85294, "lng": 4.45216, "name": "PRESS SH ST LUC WOLUWE", "operator": "bpost", "type": "post_point", "subtype": "2", "address": "HIPPOKRATESLAAN 10, 1200 SINT-LAMBRECHTS-WOLUWE", "source": "bpost_pudo"}, {"id": "bpost_100384", "lat": 50.86078, "lng": 4.41209, "name": "LIBRAIRIE DU DAUPHIN", "operator": "bpost", "type": "post_point", "subtype": "2", "address": "GELUKZALIGHEIDSLAAN 5, 1140 EVERE", "source": "bpost_pudo"}, {"id": "bpost_42115", "lat": 50.86307, "lng": 4.42987, "name": "BBOX BIG FOOD ZAVENTEM", "operator": "bpost", "type": "locker", "subtype": "4", "address": "LEUVENSESTEENWEG 3, 1932 ZAVENTEM", "source": "bpost_pudo"}, {"id": "bpost_638160", "lat": 50.82673, "lng": 4.40369, "name": "TEXACO 1160 VOLONTAIRES", "operator": "bpost", "type": "post_point", "subtype": "2", "address": "VRIJWILLIGERSLAAN 103, 1160 OUDERGEM", "source": "bpost_pudo"}, {"id": "bpost_619015", "lat": 50.82332, "lng": 4.40826, "name": "INTER PRESSE", "operator": "bpost", "type": "post_point", "subtype": "2", "address": "EDOUARD HENRARDSTRAAT 2, 1160 OUDERGEM", "source": "bpost_pudo"}, {"id": "bpost_37626", "lat": 50.84167, "lng": 4.46374, "name": "BBOX STOCKEL SQUAR", "operator": "bpost", "type": "locker", "subtype": "4", "address": "KERKSTRAAT 96A-98A, 1150 SINT-PIETERS-WOLUWE", "source": "bpost_pudo"}, {"id": "bpost_100697", "lat": 50.82117, "lng": 4.40772, "name": "DAGBLADHANDEL SAINT-JULIEN", "operator": "bpost", "type": "post_point", "subtype": "2", "address": "WAVERSE STEENWEG 1285, 1160 OUDERGEM", "source": "bpost_pudo"}, {"id": "bpost_100634", "lat": 50.83992, "lng": 4.46538, "name": "PRESS SH PLACE DUMON", "operator": "bpost", "type": "post_point", "subtype": "2", "address": "DUMONPLEIN 9, 1150 SINT-PIETERS-WOLUWE", "source": "bpost_pudo"}, {"id": "bpost_636426", "lat": 50.81757, "lng": 4.42019, "name": "TONGO MARKET", "operator": "bpost", "type": "post_point", "subtype": "2", "address": "WAVERSE STEENWEG 1593, 1160 OUDERGEM", "source": "bpost_pudo"}, {"id": "bpost_34645", "lat": 50.82335, "lng": 4.39835, "name": "BBOX VUB IXELLES", "operator": "bpost", "type": "locker", "subtype": "4", "address": "TRIOMFLAAN 6, 1050 ELSENE", "source": "bpost_pudo"}, {"id": "bpost_287700", "lat": 50.84013, "lng": 4.46739, "name": "KRAAINEM", "operator": "bpost", "type": "post_office", "subtype": "1", "address": "POTAARDESTRAAT 12, 1950 KRAAINEM", "source": "bpost_pudo"}, {"id": "bpost_42696", "lat": 50.84444, "lng": 4.46843, "name": "BBOX LIDL KRAAINEM", "operator": "bpost", "type": "locker", "subtype": "4", "address": "KONINGIN ASTRIDLAAN 364, 1950 KRAAINEM", "source": "bpost_pudo"}, {"id": "bpost_004100", "lat": 50.81605, "lng": 4.43389, "name": "OUDERGEM", "operator": "bpost", "type": "post_office", "subtype": "1", "address": "TWEESTEENWEGENSTRAAT 4, 1160 OUDERGEM", "source": "bpost_pudo"}, {"id": "bpost_40525", "lat": 50.81606, "lng": 4.43401, "name": "BBOX BPOST AUDERGHEM", "operator": "bpost", "type": "locker", "subtype": "4", "address": "TWEESTEENWEGENSTRAAT 4, 1160 OUDERGEM", "source": "bpost_pudo"}, {"id": "bpost_100609", "lat": 50.82787, "lng": 4.46227, "name": "PRESS SH STE ALIX", "operator": "bpost", "type": "post_point", "subtype": "2", "address": "SINTE ALEIDISVOORPLEIN 33, 1150 SINT-PIETERS-WOLUWE", "source": "bpost_pudo"}, {"id": "bpost_19204", "lat": 50.86719, "lng": 4.40406, "name": "BBOX CARREFOUR EVERE", "operator": "bpost", "type": "locker", "subtype": "4", "address": "OLYMPIADENLAAN 12, 1140 EVERE", "source": "bpost_pudo"}, {"id": "bpost_889200", "lat": 50.8681, "lng": 4.40358, "name": "CARREFOUR EVERE", "operator": "bpost", "type": "post_point", "subtype": "2", "address": "OLYMPIADENLAAN 12, 1140 EVERE", "source": "bpost_pudo"}, {"id": "bpost_892500", "lat": 50.81423, "lng": 4.4261, "name": "CARREFOUR AUDERGHEM", "operator": "bpost", "type": "post_point", "subtype": "2", "address": "VORSTLAAN 240, 1160 OUDERGEM", "source": "bpost_pudo"}, {"id": "bpost_16668", "lat": 50.81416, "lng": 4.42572, "name": "BBOX-AUTOM CARREFOUR OUDERGEM", "operator": "bpost", "type": "locker", "subtype": "4", "address": "VORSTLAAN 240, 1160 OUDERGEM", "source": "bpost_pudo"}, {"id": "bpost_42656", "lat": 50.84913, "lng": 4.47105, "name": "BBOX DELHAIZE KRAAINEM", "operator": "bpost", "type": "locker", "subtype": "4", "address": "WEZEMBEEKLAAN 112, 1950 KRAAINEM", "source": "bpost_pudo"}, {"id": "bpost_100572", "lat": 50.81344, "lng": 4.42705, "name": "LUKOIL SOUVERAIN", "operator": "bpost", "type": "post_point", "subtype": "2", "address": "VORSTLAAN 91, 1160 OUDERGEM", "source": "bpost_pudo"}, {"id": "bpost_867600", "lat": 50.8482, "lng": 4.4724, "name": "CARREFOUR KRAAINEM", "operator": "bpost", "type": "post_point", "subtype": "2", "address": "WEZEMBEEKLAAN 114, 1950 KRAAINEM", "source": "bpost_pudo"}, {"id": "bpost_16544", "lat": 50.84931, "lng": 4.47249, "name": "BBOX CARREFOUR KRAAINEM", "operator": "bpost", "type": "locker", "subtype": "4", "address": "WEZEMBEEKLAAN 114, 1950 KRAAINEM", "source": "bpost_pudo"}, {"id": "bpost_41473", "lat": 50.81288, "lng": 4.42965, "name": "BBOX DELHAIZE HERRMANN-DEBROUX", "operator": "bpost", "type": "locker", "subtype": "4", "address": "HERRMANN DEBROUXLAAN 26, 1160 OUDERGEM", "source": "bpost_pudo"}, {"id": "bpost_810180", "lat": 50.86855, "lng": 4.39972, "name": "DAGBL KURTH EVERE", "operator": "bpost", "type": "post_point", "subtype": "2", "address": "GODFROID KURTHSTRAAT 87, 1140 EVERE", "source": "bpost_pudo"}, {"id": "bpost_36614", "lat": 50.87343, "lng": 4.4149, "name": "BBOX CITYDEV EVERE", "operator": "bpost", "type": "locker", "subtype": "4", "address": "JULES BORDETLAAN 11, 1140 EVERE", "source": "bpost_pudo"}, {"id": "bpost_37228", "lat": 50.81795, "lng": 4.39629, "name": "BBOX ULB CAMP PLAI", "operator": "bpost", "type": "locker", "subtype": "4", "address": "TRIOMFLAAN ACCES2, 1050 ELSENE", "source": "bpost_pudo"}, {"id": "bpost_100659", "lat": 50.81155, "lng": 4.42346, "name": "DAGBLADHANDEL PINOY", "operator": "bpost", "type": "post_point", "subtype": "2", "address": "EDOUARD PINOYPLEIN 5, 1160 OUDERGEM", "source": "bpost_pudo"}, {"id": "bpost_640319", "lat": 50.86896, "lng": 4.39591, "name": "LIBRAIRIE NOELLE", "operator": "bpost", "type": "post_point", "subtype": "2", "address": "LINDESTRAAT 337-339, 1140 EVERE", "source": "bpost_pudo"}, {"id": "bpost_42732", "lat": 50.87107, "lng": 4.39959, "name": "BBOX CARREF EXPRESS NOTRE DAME", "operator": "bpost", "type": "locker", "subtype": "4", "address": "ONZE-LIEVE-VROUWLAAN 91, 1140 EVERE", "source": "bpost_pudo"}, {"id": "bpost_638144", "lat": 50.87097, "lng": 4.39895, "name": "FAX PHONE NOTRE DAME", "operator": "bpost", "type": "post_point", "subtype": "2", "address": "ONZE-LIEVE-VROUWLAAN 74, 1140 EVERE", "source": "bpost_pudo"}, {"id": "bpost_37730", "lat": 50.81794, "lng": 4.39214, "name": "BBOX XIOR COURONNE", "operator": "bpost", "type": "locker", "subtype": "4", "address": "KROONLAAN 365, 1050 ELSENE", "source": "bpost_pudo"}, {"id": "bpost_100343", "lat": 50.81129, "lng": 4.44015, "name": "TEXACO AUDERGHEM", "operator": "bpost", "type": "post_point", "subtype": "2", "address": "WAVERSE STEENWEG 2009, 1160 OUDERGEM", "source": "bpost_pudo"}, {"id": "bpost_42939", "lat": 50.87109, "lng": 4.45407, "name": "BBOX-AUTOM \tSPAR JOZEF VAN DAM", "operator": "bpost", "type": "locker", "subtype": "4", "address": "JOZEF VAN DAMSTRAAT 3C, 1932 ZAVENTEM", "source": "bpost_pudo"}, {"id": "bpost_637404", "lat": 50.86082, "lng": 4.47164, "name": "L IMPERIAL EXOTIC FRUITS", "operator": "bpost", "type": "post_point", "subtype": "2", "address": "ARTHUR DEZANGRÉLAAN 78, 1950 KRAAINEM", "source": "bpost_pudo"}, {"id": "bpost_004900", "lat": 50.87525, "lng": 4.40449, "name": "EVERE HAACHT", "operator": "bpost", "type": "post_office", "subtype": "1", "address": "HAACHTSESTEENWEG 1031J, 1140 EVERE", "source": "bpost_pudo"}, {"id": "bpost_42412", "lat": 50.87536, "lng": 4.40449, "name": "BBOX EVERE HAECHT BPOST", "operator": "bpost", "type": "locker", "subtype": "4", "address": "HAACHTSESTEENWEG 1031J, 1140 EVERE", "source": "bpost_pudo"}, {"id": "bpost_17794", "lat": 50.87789, "lng": 4.41249, "name": "BBOX-AUTOM DECATHLON EVERE", "operator": "bpost", "type": "locker", "subtype": "4", "address": "JULES BORDETLAAN 1, 1140 EVERE", "source": "bpost_pudo"}, {"id": "bpost_16655", "lat": 50.80941, "lng": 4.40289, "name": "BBOX WATERM-KEY BP", "operator": "bpost", "type": "locker", "subtype": "4", "address": "EUGÈNE KEYMPLEIN 50-51, 1170 WATERMAAL-BOSVOORDE", "source": "bpost_pudo"}, {"id": "bpost_039400", "lat": 50.80915, "lng": 4.40279, "name": "WATERMAAL KEYM", "operator": "bpost", "type": "post_office", "subtype": "1", "address": "EUGÈNE KEYMPLEIN 50-51, 1170 WATERMAAL-BOSVOORDE", "source": "bpost_pudo"}, {"id": "bpost_638297", "lat": 50.80894, "lng": 4.40351, "name": "LE COMPTOIR D'EUGENE.", "operator": "bpost", "type": "post_point", "subtype": "2", "address": "EUGÈNE KEYMPLEIN 23-24, 1170 WATERMAAL-BOSVOORDE", "source": "bpost_pudo"}, {"id": "bpost_642169", "lat": 50.84784, "lng": 4.48404, "name": "SUPERMARKET WEZEMBEEK-OPPEM", "operator": "bpost", "type": "post_point", "subtype": "2", "address": "GERGELSTRAAT 96, 1970 WEZEMBEEK-OPPEM", "source": "bpost_pudo"}, {"id": "bpost_637963", "lat": 50.8727, "lng": 4.38963, "name": "LIBRAIRIE DE HELMET", "operator": "bpost", "type": "post_point", "subtype": "2", "address": "HELMETSEPLEIN 9, 1030 SCHAARBEEK", "source": "bpost_pudo"}, {"id": "bpost_42215", "lat": 50.87724, "lng": 4.40064, "name": "BBOX SPEED QUEEN PAIX/VREDE", "operator": "bpost", "type": "locker", "subtype": "4", "address": "VREDEPLEIN 5, 1140 EVERE", "source": "bpost_pudo"}, {"id": "bpost_414900", "lat": 50.84378, "lng": 4.48578, "name": "WEZEMBEEK-OPPEM", "operator": "bpost", "type": "post_office", "subtype": "1", "address": "VIOOLTJESLAAN 6, 1970 WEZEMBEEK-OPPEM", "source": "bpost_pudo"}, {"id": "bpost_100468", "lat": 50.81437, "lng": 4.38617, "name": "POINT POSTE UNIVERSITE XL", "operator": "bpost", "type": "post_point", "subtype": "2", "address": "HOGESCHOOLLAAN 74, 1050 ELSENE", "source": "bpost_pudo"}, {"id": "bpost_619020", "lat": 50.87385, "lng": 4.38737, "name": "PRESS SHOP SCHAERBEEK", "operator": "bpost", "type": "post_point", "subtype": "2", "address": "HELMETSESTEENWEG 234, 1030 SCHAARBEEK", "source": "bpost_pudo"}, {"id": "bpost_101459", "lat": 50.88089, "lng": 4.40378, "name": "LIBRAIRIE SAINT-VINCENT", "operator": "bpost", "type": "post_point", "subtype": "2", "address": "SINT-VINCENTIUSSTRAAT 7, 1140 EVERE", "source": "bpost_pudo"}, {"id": "bpost_37349", "lat": 50.813, "lng": 4.38133, "name": "BBOX ULB SOLBOSCH", "operator": "bpost", "type": "locker", "subtype": "4", "address": "PAUL HEGERLAAN 22, 1000 BRUSSEL", "source": "bpost_pudo"}, {"id": "bpost_41994", "lat": 50.80784, "lng": 4.39086, "name": "BBOX CARREFOUR TILLEUL", "operator": "bpost", "type": "locker", "subtype": "4", "address": "ARMAND HUYSMANSLAAN 220, 1050 ELSENE", "source": "bpost_pudo"}, {"id": "bpost_813630", "lat": 50.87676, "lng": 4.38544, "name": "DAGBL ANATOLE FRANCE", "operator": "bpost", "type": "post_point", "subtype": "2", "address": "ANATOLE FRANCESTRAAT 102B, 1030 SCHAARBEEK", "source": "bpost_pudo"}, {"id": "bpost_41863", "lat": 50.8702, "lng": 4.47749, "name": "BBOX STORO ZAVENTEM", "operator": "bpost", "type": "locker", "subtype": "4", "address": "WEZEMBEEKSTRAAT 5, 1930 ZAVENTEM", "source": "bpost_pudo"}, {"id": "bpost_41160", "lat": 50.84112, "lng": 4.49613, "name": "BBOX DELHAIZE WEZEMBEEK-OPPEM", "operator": "bpost", "type": "locker", "subtype": "4", "address": "MECHELSESTEENWEG 100, 1970 WEZEMBEEK-OPPEM", "source": "bpost_pudo"}, {"id": "bpost_16556", "lat": 50.88526, "lng": 4.45053, "name": "BBOX PARKLANE DIEG", "operator": "bpost", "type": "locker", "subtype": "4", "address": "CULLIGANLAAN 2A, 1831 MACHELEN", "source": "bpost_pudo"}, {"id": "bpost_815390", "lat": 50.79798, "lng": 4.41864, "name": "PRESS SHOP WIENERPLEIN", "operator": "bpost", "type": "post_point", "subtype": "2", "address": "LÉOPOLD WIENERPLEIN 5, 1170 WATERMAAL-BOSVOORDE", "source": "bpost_pudo"}, {"id": "bpost_38031", "lat": 50.87759, "lng": 4.37859, "name": "BBOX GARE SCHAERBEEK", "operator": "bpost", "type": "locker", "subtype": "4", "address": "PRINSES ELISABETHPLEIN 5, 1030 SCHAARBEEK", "source": "bpost_pudo"}, {"id": "bpost_43011", "lat": 50.8818, "lng": 4.46581, "name": "BBOX ALBERT HEIJN ZAVENTEM", "operator": "bpost", "type": "locker", "subtype": "4", "address": "HOOGSTRAAT 179, 1930 ZAVENTEM", "source": "bpost_pudo"}, {"id": "bpost_38722", "lat": 50.89073, "lng": 4.44243, "name": "BBOX GARE DIEGEM", "operator": "bpost", "type": "locker", "subtype": "4", "address": "STATIONSSTRAAT AUTOMAAT, 1831 MACHELEN", "source": "bpost_pudo"}, {"id": "bpost_42216", "lat": 50.7975, "lng": 4.39698, "name": "BBOX-AUTOM  DELHAIZE ELSENE ROOSEVELT", "operator": "bpost", "type": "locker", "subtype": "4", "address": "FRANKLIN ROOSEVELTLAAN 250, 1050 BRUSSEL", "source": "bpost_pudo"}, {"id": "bpost_638216", "lat": 50.89183, "lng": 4.41806, "name": "KAPLAN MARKET", "operator": "bpost", "type": "post_point", "subtype": "2", "address": "VERDUNSTRAAT 427, 1130 BRUSSEL", "source": "bpost_pudo"}, {"id": "bpost_100640", "lat": 50.79711, "lng": 4.3963, "name": "LOUIS DELHAIZE ROOSEVELT", "operator": "bpost", "type": "post_point", "subtype": "2", "address": "FRANKLIN ROOSEVELTLAAN 250, 1050 BRUSSEL", "source": "bpost_pudo"}, {"id": "bpost_37595", "lat": 50.79338, "lng": 4.41936, "name": "BBOX DELHAIZE W-B", "operator": "bpost", "type": "locker", "subtype": "4", "address": "TERHULPSESTEENWEG 255, 1170 WATERMAAL-BOSVOORDE", "source": "bpost_pudo"}, {"id": "bpost_619007", "lat": 50.884, "lng": 4.47128, "name": "PRESS SHOP ZAVENTEM", "operator": "bpost", "type": "post_point", "subtype": "2", "address": "STATIONSSTRAAT 115, 1930 ZAVENTEM", "source": "bpost_pudo"}, {"id": "bpost_416700", "lat": 50.87452, "lng": 4.48809, "name": "ZAVENTEM", "operator": "bpost", "type": "post_office", "subtype": "1", "address": "LEUVENSESTEENWEG 573, 1930 ZAVENTEM", "source": "bpost_pudo"}, {"id": "bpost_16606", "lat": 50.87457, "lng": 4.48829, "name": "BBOX ZAVENTEM BP", "operator": "bpost", "type": "locker", "subtype": "4", "address": "LEUVENSESTEENWEG 573, 1930 ZAVENTEM", "source": "bpost_pudo"}, {"id": "bpost_37798", "lat": 50.88512, "lng": 4.47117, "name": "BBOX GARE ZAVENTEM", "operator": "bpost", "type": "locker", "subtype": "4", "address": "HELDENPLEIN 13, 1930 ZAVENTEM", "source": "bpost_pudo"}, {"id": "bpost_640100", "lat": 50.80447, "lng": 4.37263, "name": "TOTALENERGIES CAMBRE", "operator": "bpost", "type": "post_point", "subtype": "2", "address": "WATERLOOSESTEENWEG 884-886, 1000 BRUSSEL", "source": "bpost_pudo"}, {"id": "bpost_36290", "lat": 50.73574, "lng": 4.23841, "name": "BBOX POSSOZPL HLLE", "operator": "bpost", "type": "locker", "subtype": "4", "address": "JOSEPH POSSOZPLEIN 1, 1500 HALLE", "source": "bpost_pudo"}, {"id": "bpost_632350", "lat": 50.73511, "lng": 4.23595, "name": "PRESS SHOP HALLE", "operator": "bpost", "type": "post_point", "subtype": "2", "address": "BASILIEKSTRAAT 45, 1500 HALLE", "source": "bpost_pudo"}, {"id": "bpost_36373", "lat": 50.73369, "lng": 4.24013, "name": "BBOX NMBS HALLE", "operator": "bpost", "type": "locker", "subtype": "4", "address": "VANDENPEEREBOOMSTRAAT 1, 1500 HALLE", "source": "bpost_pudo"}, {"id": "bpost_214700", "lat": 50.73407, "lng": 4.23351, "name": "HALLE CENTRUM", "operator": "bpost", "type": "post_office", "subtype": "1", "address": "LOUIS THEUNCKENSSTRAAT 1, 1500 HALLE", "source": "bpost_pudo"}, {"id": "bpost_41885", "lat": 50.73396, "lng": 4.23343, "name": "BBOX HALLE CENTRUM BPOST", "operator": "bpost", "type": "locker", "subtype": "4", "address": "LOUIS THEUNCKENSSTRAAT 1, 1500 HALLE", "source": "bpost_pudo"}, {"id": "bpost_41482", "lat": 50.73209, "lng": 4.23532, "name": "BBOX DELHAIZE HALLE", "operator": "bpost", "type": "locker", "subtype": "4", "address": "BASILIEKSTRAAT 130, 1500 HALLE", "source": "bpost_pudo"}, {"id": "bpost_638984", "lat": 50.7408, "lng": 4.2389, "name": "BITZ COMPUTERS", "operator": "bpost", "type": "post_point", "subtype": "2", "address": "BRUSSELSESTEENWEG 107, 1500 HALLE", "source": "bpost_pudo"}, {"id": "bpost_37736", "lat": 50.73054, "lng": 4.23052, "name": "BBOX BEL&BO HALLE", "operator": "bpost", "type": "locker", "subtype": "4", "address": "RENÉ DEBOECKLAAN 2, 1500 HALLE", "source": "bpost_pudo"}, {"id": "bpost_813490", "lat": 50.74123, "lng": 4.24952, "name": "DAGBLADHANDEL BIJ NATHALIE", "operator": "bpost", "type": "post_point", "subtype": "2", "address": "GEMEENTEPLEIN 5, 1501 HALLE", "source": "bpost_pudo"}, {"id": "bpost_43031", "lat": 50.72563, "lng": 4.24497, "name": "BBOX-AUTOM SPAR HALLE", "operator": "bpost", "type": "locker", "subtype": "4", "address": "NIJVELSESTEENWEG 116, 1500 HALLE", "source": "bpost_pudo"}, {"id": "bpost_636703", "lat": 50.74568, "lng": 4.26716, "name": "PROXY BUIZINGEN + LOTTO", "operator": "bpost", "type": "post_point", "subtype": "2", "address": "ALSEMBERGSESTEENWEG 229, 1501 HALLE", "source": "bpost_pudo"}, {"id": "bpost_38912", "lat": 50.71445, "lng": 4.22159, "name": "BBOX GARE LEMBEEK", "operator": "bpost", "type": "locker", "subtype": "4", "address": "STATIONSSTRAAT 36, 1502 HALLE", "source": "bpost_pudo"}, {"id": "bpost_42775", "lat": 50.75169, "lng": 4.2662, "name": "BBOX STATION HUIZINGEN", "operator": "bpost", "type": "locker", "subtype": "4", "address": "A. VAUCAMPSLAAN AUTOMAAT, 1654 BEERSEL", "source": "bpost_pudo"}, {"id": "bpost_632909", "lat": 50.74687, "lng": 4.27514, "name": "KRANTENWINKEL SEGHERS", "operator": "bpost", "type": "post_point", "subtype": "2", "address": "HENRI TORLEYLAAN 26, 1654 BEERSEL", "source": "bpost_pudo"}, {"id": "bpost_638678", "lat": 50.7396, "lng": 4.27932, "name": "NIGHT & DAY 126 HUIZINGEN", "operator": "bpost", "type": "post_point", "subtype": "2", "address": "HENRI TORLEYLAAN 115, 1654 BEERSEL", "source": "bpost_pudo"}, {"id": "bpost_42990", "lat": 50.76361, "lng": 4.25216, "name": "BBOX-AUTOM BRUKOMTEGEL", "operator": "bpost", "type": "locker", "subtype": "4", "address": "BERGENSESTEENWEG 719-723, 1600 SINT-PIETERS-LEEUW", "source": "bpost_pudo"}, {"id": "bpost_42151", "lat": 50.76611, "lng": 4.27388, "name": "BBOX STATION LOT", "operator": "bpost", "type": "locker", "subtype": "4", "address": "STATIONSSTRAAT AUTOMAAT, 1651 BEERSEL", "source": "bpost_pudo"}, {"id": "bpost_100787", "lat": 50.7302, "lng": 4.29887, "name": "CARPE DIEM DWORP", "operator": "bpost", "type": "post_point", "subtype": "2", "address": "ALSEMBERGSESTEENWEG 610, 1653 BEERSEL", "source": "bpost_pudo"}, {"id": "bpost_42491", "lat": 50.69804, "lng": 4.20429, "name": "BBOX LIDL TUBIZE", "operator": "bpost", "type": "locker", "subtype": "4", "address": "RUE DE BRUXELLES 114, 1480 TUBIZE", "source": "bpost_pudo"}, {"id": "bpost_637991", "lat": 50.77862, "lng": 4.25262, "name": "BOEKHANDEL VITESSKE", "operator": "bpost", "type": "post_point", "subtype": "2", "address": "GALGSTRAAT 217, 1600 SINT-PIETERS-LEEUW", "source": "bpost_pudo"}, {"id": "bpost_36512", "lat": 50.78069, "lng": 4.24466, "name": "BBOX-AUTOM GEMEENTEHUIS SPL", "operator": "bpost", "type": "locker", "subtype": "4", "address": "PASTORIJSTRAAT 21, 1600 SINT-PIETERS-LEEUW", "source": "bpost_pudo"}, {"id": "bpost_42598", "lat": 50.69404, "lng": 4.20749, "name": "BBOX CHAUSSURES LUXUS TUBIZE", "operator": "bpost", "type": "locker", "subtype": "4", "address": "RUE DU PONT DEMEUR 2, 1480 TUBIZE", "source": "bpost_pudo"}, {"id": "bpost_641272", "lat": 50.70963, "lng": 4.1759, "name": "MONDO HOTEL", "operator": "bpost", "type": "post_point", "subtype": "2", "address": "AVENUE LEON CHAMPAGNE 1, 1480 TUBIZE", "source": "bpost_pudo"}, {"id": "bpost_36428", "lat": 50.68984, "lng": 4.22298, "name": "BBOX PARK. CLABECQ", "operator": "bpost", "type": "locker", "subtype": "4", "address": "RUE GEORGES LEVEAU DISTRIB, 1480 TUBIZE", "source": "bpost_pudo"}, {"id": "bpost_100120", "lat": 50.69213, "lng": 4.20868, "name": "LIBRAIRIE HANON TUBIZE", "operator": "bpost", "type": "post_point", "subtype": "2", "address": "RUE DE LA DEPORTATION 64, 1480 TUBIZE", "source": "bpost_pudo"}, {"id": "bpost_33875", "lat": 50.70817, "lng": 4.17489, "name": "BBOX CENTR CHAMPAG", "operator": "bpost", "type": "locker", "subtype": "4", "address": "AVENUE LEON CHAMPAGNE 2, 1480 TUBIZE", "source": "bpost_pudo"}, {"id": "bpost_36427", "lat": 50.69185, "lng": 4.20552, "name": "BBOX GARE TUBIZE", "operator": "bpost", "type": "locker", "subtype": "4", "address": "PLATEAU DE LA GARE 32, 1480 TUBIZE", "source": "bpost_pudo"}, {"id": "bpost_191100", "lat": 50.69047, "lng": 4.20428, "name": "TUBIZE CENTRE", "operator": "bpost", "type": "post_office", "subtype": "1", "address": "RUE DE L'INDUSTRIE 15, 1480 TUBIZE", "source": "bpost_pudo"}, {"id": "bpost_41877", "lat": 50.68325, "lng": 4.2284, "name": "BBOX INTERMARCHÉ CLABECQ", "operator": "bpost", "type": "locker", "subtype": "4", "address": "RUE RAYMOND PIERET 1, 1480 TUBIZE", "source": "bpost_pudo"}, {"id": "bpost_223350", "lat": 50.7598, "lng": 4.16232, "name": "PEPINGEN", "operator": "bpost", "type": "post_office", "subtype": "1", "address": "STEENWEG OP ELINGEN 7, 1670 PEPINGEN", "source": "bpost_pudo"}, {"id": "bpost_260500", "lat": 50.76615, "lng": 4.30991, "name": "BEERSEL", "operator": "bpost", "type": "post_office", "subtype": "1", "address": "HOOGSTRAAT 17, 1650 BEERSEL", "source": "bpost_pudo"}, {"id": "bpost_639758", "lat": 50.76227, "lng": 4.31379, "name": "CARREFOUR EXPRESS BEERSEL", "operator": "bpost", "type": "post_point", "subtype": "2", "address": "GROTE BAAN 99, 1650 BEERSEL", "source": "bpost_pudo"}, {"id": "bpost_42126", "lat": 50.73495, "lng": 4.32681, "name": "BBOX SPAR RHODE", "operator": "bpost", "type": "locker", "subtype": "4", "address": "HALLESESTEENWEG 215, 1640 SINT-GENESIUS-RODE", "source": "bpost_pudo"}, {"id": "bpost_126700", "lat": 50.68165, "lng": 4.26611, "name": "BRAINE-LE-CHATEAU", "operator": "bpost", "type": "post_office", "subtype": "1", "address": "GRAND'PLACE 17, 1440 BRAINE-LE-CHÂTEAU", "source": "bpost_pudo"}, {"id": "bpost_100131", "lat": 50.70649, "lng": 4.15911, "name": "LOUIS DELHAIZE SAINTES", "operator": "bpost", "type": "post_point", "subtype": "2", "address": "CHAUSSEE D'ENGHIEN 248, 1480 TUBIZE", "source": "bpost_pudo"}, {"id": "bpost_640491", "lat": 50.78755, "lng": 4.28015, "name": "FAMILY OFFICE", "operator": "bpost", "type": "post_point", "subtype": "2", "address": "RUISBROEKSESTEENWEG 9, 1600 SINT-PIETERS-LEEUW", "source": "bpost_pudo"}, {"id": "bpost_39037", "lat": 50.73755, "lng": 4.3315, "name": "BBOX LIDL RHODE ST GENESE", "operator": "bpost", "type": "locker", "subtype": "4", "address": "HALLESESTEENWEG 148, 1640 SINT-GENESIUS-RODE", "source": "bpost_pudo"}, {"id": "bpost_38866", "lat": 50.67641, "lng": 4.27402, "name": "BBOX LIDL BRAINE-LE-CHÂTEAU", "operator": "bpost", "type": "locker", "subtype": "4", "address": "RUE DE NIVELLES 72A, 1440 BRAINE-LE-CHÂTEAU", "source": "bpost_pudo"}, {"id": "bpost_41693", "lat": 50.73998, "lng": 4.33898, "name": "BBOX DELHAIZE ALSEMBERG", "operator": "bpost", "type": "locker", "subtype": "4", "address": "STEENWEG NAAR EIGENBRAKEL 34, 1652 BEERSEL", "source": "bpost_pudo"}, {"id": "bpost_42181", "lat": 50.79405, "lng": 4.28256, "name": "BBOX LIDL ST-PIETERS-LEEUW", "operator": "bpost", "type": "locker", "subtype": "4", "address": "BERGENSESTEENWEG 250, 1600 SINT-PIETERS-LEEUW", "source": "bpost_pudo"}, {"id": "bpost_36513", "lat": 50.79094, "lng": 4.29516, "name": "BBOX STATION RUISB", "operator": "bpost", "type": "locker", "subtype": "4", "address": "STATIONSSTRAAT 54, 1601 SINT-PIETERS-LEEUW", "source": "bpost_pudo"}, {"id": "bpost_42345", "lat": 50.79644, "lng": 4.28528, "name": "BBOX-AUTOM ST-PIETERS-LEEUW BPOST", "operator": "bpost", "type": "locker", "subtype": "4", "address": "BERGENSESTEENWEG 180, 1600 SINT-PIETERS-LEEUW", "source": "bpost_pudo"}, {"id": "bpost_408300", "lat": 50.79647, "lng": 4.28566, "name": "ST-PIETERS-LEEUW", "operator": "bpost", "type": "post_office", "subtype": "1", "address": "BERGENSESTEENWEG 180, 1600 SINT-PIETERS-LEEUW", "source": "bpost_pudo"}, {"id": "bpost_101122", "lat": 50.68824, "lng": 4.31364, "name": "VAPITEX", "operator": "bpost", "type": "post_point", "subtype": "2", "address": "CHAUSSÉE DE TUBIZE 210, 1440 BRAINE-LE-CHÂTEAU", "source": "bpost_pudo"}, {"id": "bpost_405900", "lat": 50.74389, "lng": 4.34593, "name": "ST-GENESIUS-RODE", "operator": "bpost", "type": "post_office", "subtype": "1", "address": "FONTEINSTRAAT 22, 1640 SINT-GENESIUS-RODE", "source": "bpost_pudo"}, {"id": "bpost_41607", "lat": 50.68734, "lng": 4.31621, "name": "BBOX G-RENT", "operator": "bpost", "type": "locker", "subtype": "4", "address": "PARC INDUSTRIEL 15, 1440 BRAINE-LE-CHÂTEAU", "source": "bpost_pudo"}, {"id": "bpost_36514", "lat": 50.80013, "lng": 4.28636, "name": "BBOX WILDERSPORTCO", "operator": "bpost", "type": "locker", "subtype": "4", "address": "SPORTLAAN 11, 1600 SINT-PIETERS-LEEUW", "source": "bpost_pudo"}, {"id": "bpost_101332", "lat": 50.8074, "lng": 4.23267, "name": "PRESS SHOP VLEZENBEEK", "operator": "bpost", "type": "post_point", "subtype": "2", "address": "VLEZENBEEKLAAN 171A, 1602 SINT-PIETERS-LEEUW", "source": "bpost_pudo"}, {"id": "bpost_291100", "lat": 50.7736, "lng": 4.3351, "name": "LINKEBEEK", "operator": "bpost", "type": "post_office", "subtype": "1", "address": "STATIONSSTRAAT 80, 1630 LINKEBEEK", "source": "bpost_pudo"}, {"id": "bpost_37290", "lat": 50.78193, "lng": 4.32654, "name": "BBOX CARWASH LYCÉE", "operator": "bpost", "type": "locker", "subtype": "4", "address": "ALSEMBERGSESTEENWEG 1356, 1180 UKKEL", "source": "bpost_pudo"}, {"id": "bpost_237010", "lat": 50.78922, "lng": 4.31585, "name": "DROGENBOS", "operator": "bpost", "type": "post_office", "subtype": "1", "address": "STERSTRAAT 47, 1620 DROGENBOS", "source": "bpost_pudo"}, {"id": "bpost_812550", "lat": 50.79527, "lng": 4.30739, "name": "CARREFOUR PLANET DROGENBOS", "operator": "bpost", "type": "post_point", "subtype": "2", "address": "PAUL GILSONLAAN 455, 1620 DROGENBOS", "source": "bpost_pudo"}, {"id": "bpost_41461", "lat": 50.81009, "lng": 4.23758, "name": "BBOX PROXY DELHAIZE VLEZENBEEK", "operator": "bpost", "type": "locker", "subtype": "4", "address": "POSTWEG 96, 1602 SINT-PIETERS-LEEUW", "source": "bpost_pudo"}, {"id": "bpost_42578", "lat": 50.80444, "lng": 4.28906, "name": "BBOX ST-P-LEEUW ALBERT HEIJN", "operator": "bpost", "type": "locker", "subtype": "4", "address": "BERGENSESTEENWEG 65, 1600 SINT-PIETERS-LEEUW", "source": "bpost_pudo"}, {"id": "bpost_100847", "lat": 50.78419, "lng": 4.33066, "name": "EPIK MARKET", "operator": "bpost", "type": "post_point", "subtype": "2", "address": "CALEVOETSTRAAT 84, 1180 UKKEL", "source": "bpost_pudo"}, {"id": "bpost_38138", "lat": 50.74754, "lng": 4.36179, "name": "BBOX GARE RHODE ST GEN", "operator": "bpost", "type": "locker", "subtype": "4", "address": "STATIONSPLEIN 18, 1640 SINT-GENESIUS-RODE", "source": "bpost_pudo"}, {"id": "bpost_36974", "lat": 50.81422, "lng": 4.26609, "name": "BBOX HÔPITAL ERASM", "operator": "bpost", "type": "locker", "subtype": "4", "address": "LENNIKSE BAAN 808, 1070 ANDERLECHT", "source": "bpost_pudo"}, {"id": "bpost_100631", "lat": 50.81511, "lng": 4.26688, "name": "PRESS SH ERASME", "operator": "bpost", "type": "post_point", "subtype": "2", "address": "LENNIKSE BAAN 806, 1070 ANDERLECHT", "source": "bpost_pudo"}, {"id": "bpost_36901", "lat": 50.70662, "lng": 4.35732, "name": "BBOX SACRÉ COEUR ERMITE", "operator": "bpost", "type": "locker", "subtype": "4", "address": "CHAUSSÉE D'ALSEMBERG 678, 1420 BRAINE-L'ALLEUD", "source": "bpost_pudo"}, {"id": "bpost_640037", "lat": 50.70606, "lng": 4.35823, "name": "LOUIS DELHAIZE BRAINE-L'ALLEUD", "operator": "bpost", "type": "post_point", "subtype": "2", "address": "RUE D'ABEICHE 5, 1420 BRAINE-L'ALLEUD", "source": "bpost_pudo"}, {"id": "bpost_38114", "lat": 50.69592, "lng": 4.12212, "name": "BBOX IMARCHÉ REBECQ", "operator": "bpost", "type": "locker", "subtype": "4", "address": "CHAUSSÉE D'ENGHIEN 79, 1430 REBECQ", "source": "bpost_pudo"}, {"id": "bpost_640144", "lat": 50.67034, "lng": 4.15639, "name": "MISTER SHOP REBECQ.", "operator": "bpost", "type": "post_point", "subtype": "2", "address": "GRAND PLACE DE QUENAST 6, 1430 REBECQ", "source": "bpost_pudo"}, {"id": "bpost_37034", "lat": 50.8163, "lng": 4.274, "name": "BBOX ERASME AND.", "operator": "bpost", "type": "locker", "subtype": "4", "address": "RESEARCHDREEF DISTRIB, 1070 ANDERLECHT", "source": "bpost_pudo"}, {"id": "bpost_16840", "lat": 50.79757, "lng": 4.33236, "name": "BBOX-AUTOM NMBS UKKEL KALEV", "operator": "bpost", "type": "locker", "subtype": "4", "address": "ALSEMBERGSESTEENWEG 1065, 1180 UKKEL", "source": "bpost_pudo"}, {"id": "bpost_619001", "lat": 50.80728, "lng": 4.31534, "name": "NEWS SHOP ALAIN", "operator": "bpost", "type": "post_point", "subtype": "2", "address": "NEERSTALSE STEENWEG 84, 1190 VORST", "source": "bpost_pudo"}, {"id": "bpost_619035", "lat": 50.80552, "lng": 4.15471, "name": "CARREFOUR EASY MARKET", "operator": "bpost", "type": "post_point", "subtype": "2", "address": "MARKT 13, 1750 LENNIK", "source": "bpost_pudo"}, {"id": "bpost_40316", "lat": 50.69878, "lng": 4.36167, "name": "BBOX DELHAIZE BRAINE L ALLEUD", "operator": "bpost", "type": "locker", "subtype": "4", "address": "RUE DE LA GRAIGNETTE 5, 1420 BRAINE-L'ALLEUD", "source": "bpost_pudo"}, {"id": "bpost_32569", "lat": 50.81968, "lng": 4.28072, "name": "BBOX GALIMMO ANDRL", "operator": "bpost", "type": "locker", "subtype": "4", "address": "OLYMPISCHE DREEF 15, 1070 ANDERLECHT", "source": "bpost_pudo"}, {"id": "bpost_407700", "lat": 50.80712, "lng": 4.1549, "name": "LENNIK", "operator": "bpost", "type": "post_office", "subtype": "1", "address": "ALBERT VANDERKELENSTRAAT 19, 1750 LENNIK", "source": "bpost_pudo"}, {"id": "bpost_101139", "lat": 50.64936, "lng": 4.26581, "name": "LIBRAIRY-TERNEL", "operator": "bpost", "type": "post_point", "subtype": "2", "address": "RUE DU CENTENAIRE 1, 1460 ITTRE", "source": "bpost_pudo"}, {"id": "bpost_40668", "lat": 50.81772, "lng": 4.29157, "name": "BBOX GARE ANDERLECHT", "operator": "bpost", "type": "locker", "subtype": "4", "address": "BERGENSE STEENWEG 1250, 1070 ANDERLECHT", "source": "bpost_pudo"}, {"id": "bpost_004300", "lat": 50.80976, "lng": 4.31659, "name": "VORST ST-DENIJS", "operator": "bpost", "type": "post_office", "subtype": "1", "address": "SINT-DENIJSPLEIN 14, 1190 VORST", "source": "bpost_pudo"}, {"id": "bpost_39045", "lat": 50.80446, "lng": 4.32862, "name": "BBOX CARREFOUR UCCLE", "operator": "bpost", "type": "locker", "subtype": "4", "address": "GATTI DE GAMONDSTRAAT 60, 1180 UKKEL", "source": "bpost_pudo"}, {"id": "bpost_640347", "lat": 50.80964, "lng": 4.3186, "name": "SOFRESH", "operator": "bpost", "type": "post_point", "subtype": "2", "address": "JEAN-BAPTISTE VANPÉSTRAAT 29, 1190 VORST", "source": "bpost_pudo"}, {"id": "bpost_36014", "lat": 50.74993, "lng": 4.09725, "name": "BBOX HERFELINGEN", "operator": "bpost", "type": "locker", "subtype": "4", "address": "SINT-NIKLAASSTRAAT AUTOMAAT, 1540 HERNE", "source": "bpost_pudo"}, {"id": "bpost_37248", "lat": 50.80635, "lng": 4.32852, "name": "BBOX GATTI SHOP", "operator": "bpost", "type": "locker", "subtype": "4", "address": "GATTI DE GAMONDSTRAAT 2, 1180 UKKEL", "source": "bpost_pudo"}, {"id": "bpost_41876", "lat": 50.64611, "lng": 4.21175, "name": "BBOX ITTRE PHARMACIE DE VESNAU", "operator": "bpost", "type": "locker", "subtype": "4", "address": "RUE DE SAMME 61, 1460 ITTRE", "source": "bpost_pudo"}, {"id": "bpost_43177", "lat": 50.79672, "lng": 4.1277, "name": "BBOX-AUTOM DE DRIE HAMERS", "operator": "bpost", "type": "locker", "subtype": "4", "address": "EDINGSESTEENWEG 70, 1755 PAJOTTEGEM", "source": "bpost_pudo"}, {"id": "bpost_100999", "lat": 50.82117, "lng": 4.29394, "name": "PP THE BROTHERS LIBRAIRIE", "operator": "bpost", "type": "post_point", "subtype": "2", "address": "BERGENSE STEENWEG 1108, 1070 ANDERLECHT", "source": "bpost_pudo"}, {"id": "bpost_41639", "lat": 50.80116, "lng": 4.341, "name": "BBOX CARREFOUR MARKET MARLOW", "operator": "bpost", "type": "locker", "subtype": "4", "address": "GEORGES MARLOWSQUARE 10, 1180 UKKEL", "source": "bpost_pudo"}, {"id": "bpost_36613", "lat": 50.81754, "lng": 4.30732, "name": "BBOX ST. EXUPÉRY AND.", "operator": "bpost", "type": "locker", "subtype": "4", "address": "INDUSTRIELAAN 127, 1070 ANDERLECHT", "source": "bpost_pudo"}, {"id": "bpost_37030", "lat": 50.65199, "lng": 4.17554, "name": "BBOX GARE HENNUY.", "operator": "bpost", "type": "locker", "subtype": "4", "address": "CHEMIN DE LA DÎME DISTRIB, 7090 BRAINE-LE-COMTE", "source": "bpost_pudo"}, {"id": "bpost_031800", "lat": 50.80277, "lng": 4.33967, "name": "UKKEL POSTILJON", "operator": "bpost", "type": "post_office", "subtype": "1", "address": "POSTILJONSTRAAT 10-12, 1180 UKKEL", "source": "bpost_pudo"}, {"id": "bpost_805230", "lat": 50.80504, "lng": 4.33671, "name": "AZ BOUQUINS", "operator": "bpost", "type": "post_point", "subtype": "2", "address": "ALSEMBERGSESTEENWEG 711, 1180 UKKEL", "source": "bpost_pudo"}, {"id": "bpost_101115", "lat": 50.6503, "lng": 4.17892, "name": "MISTER SHOP", "operator": "bpost", "type": "post_point", "subtype": "2", "address": "RUE DU GRAND PÉRIL 87, 7090 BRAINE-LE-COMTE", "source": "bpost_pudo"}, {"id": "bpost_101340", "lat": 50.81069, "lng": 4.32683, "name": "ISME SHOP", "operator": "bpost", "type": "post_point", "subtype": "2", "address": "VICTOR ROUSSEAULAAN 149, 1190 VORST", "source": "bpost_pudo"}, {"id": "bpost_638131", "lat": 50.75795, "lng": 4.38133, "name": "LIBRAIRIE CENTRALE", "operator": "bpost", "type": "post_point", "subtype": "2", "address": "ZONIËNWOUDLAAN 332, 1640 SINT-GENESIUS-RODE", "source": "bpost_pudo"}, {"id": "bpost_638977", "lat": 50.80085, "lng": 4.12913, "name": "TOTALGOOIK", "operator": "bpost", "type": "post_point", "subtype": "2", "address": "EDINGSESTEENWEG 53-53A, 1755 PAJOTTEGEM", "source": "bpost_pudo"}, {"id": "bpost_637433", "lat": 50.69137, "lng": 4.36892, "name": "SHELL STATION RODET DC", "operator": "bpost", "type": "post_point", "subtype": "2", "address": "CHAUSSÉE D'ALSEMBERG 244, 1420 BRAINE-L'ALLEUD", "source": "bpost_pudo"}, {"id": "bpost_42184", "lat": 50.81306, "lng": 4.32484, "name": "BBOX LAVOIR ZAMAN", "operator": "bpost", "type": "locker", "subtype": "4", "address": "ZAMANLAAN 2, 1190 VORST", "source": "bpost_pudo"}, {"id": "bpost_37150", "lat": 50.71616, "lng": 4.38398, "name": "BBOX GARE WATERLOO", "operator": "bpost", "type": "locker", "subtype": "4", "address": "RUE DE LA STATION DISTRIB, 1410 WATERLOO", "source": "bpost_pudo"}, {"id": "bpost_37390", "lat": 50.82723, "lng": 4.2861, "name": "BBOX PROXYDELHAIZE", "operator": "bpost", "type": "locker", "subtype": "4", "address": "MARIUS RENARDLAAN 29, 1070 ANDERLECHT", "source": "bpost_pudo"}, {"id": "bpost_809140", "lat": 50.8249, "lng": 4.29727, "name": "DAGBLADHANDEL BIZET", "operator": "bpost", "type": "post_point", "subtype": "2", "address": "BIZETPLEIN 9, 1070 ANDERLECHT", "source": "bpost_pudo"}, {"id": "bpost_410500", "lat": 50.79523, "lng": 4.11632, "name": "GOOIK", "operator": "bpost", "type": "post_office", "subtype": "1", "address": "DORPSSTRAAT 33, 1755 PAJOTTEGEM", "source": "bpost_pudo"}, {"id": "bpost_41657", "lat": 50.82757, "lng": 4.28772, "name": "BBOX CARREFOUR AV MARIUS RENARD", "operator": "bpost", "type": "locker", "subtype": "4", "address": "MARIUS RENARDLAAN 21, 1070 ANDERLECHT", "source": "bpost_pudo"}, {"id": "bpost_641403", "lat": 50.80996, "lng": 4.33747, "name": "DR KUSH", "operator": "bpost", "type": "post_point", "subtype": "2", "address": "ALSEMBERGSESTEENWEG 484, 1180 UKKEL", "source": "bpost_pudo"}, {"id": "bpost_641787", "lat": 50.82464, "lng": 4.30116, "name": "FAMI BUSINESS RESEDAS.", "operator": "bpost", "type": "post_point", "subtype": "2", "address": "RESEDASTRAAT 27, 1070 ANDERLECHT", "source": "bpost_pudo"}, {"id": "bpost_161320", "lat": 50.64029, "lng": 4.20597, "name": "VIRGINAL", "operator": "bpost", "type": "post_office", "subtype": "1", "address": "RUE DE L'ECOLE 10, 1460 ITTRE", "source": "bpost_pudo"}, {"id": "bpost_39029", "lat": 50.68752, "lng": 4.37191, "name": "BBOX-AUTOM LIDL BRAINE L ALLEUD", "operator": "bpost", "type": "locker", "subtype": "4", "address": "AVENUE DE LA BELLE PROVINCE 20, 1420 BRAINE-L'ALLEUD", "source": "bpost_pudo"}, {"id": "bpost_42462", "lat": 50.81141, "lng": 4.33721, "name": "BBOX LIDL CH. D ALSEMBERG", "operator": "bpost", "type": "locker", "subtype": "4", "address": "ALSEMBERGSESTEENWEG 485, 1180 UKKEL", "source": "bpost_pudo"}, {"id": "bpost_42792", "lat": 50.68404, "lng": 4.37023, "name": "BBOX-AUTOM BRAINE L ALLEUD BPOST", "operator": "bpost", "type": "locker", "subtype": "4", "address": "PLACE DU MÔLE 18, 1420 BRAINE-L'ALLEUD", "source": "bpost_pudo"}, {"id": "bpost_126400", "lat": 50.68382, "lng": 4.37044, "name": "BRAINE L'ALLEUD", "operator": "bpost", "type": "post_office", "subtype": "1", "address": "PLACE DU MÔLE 18, 1420 BRAINE-L'ALLEUD", "source": "bpost_pudo"}, {"id": "bpost_42827", "lat": 50.72149, "lng": 4.39257, "name": "BBOX-AUTOM FOODIES WATERLOO", "operator": "bpost", "type": "locker", "subtype": "4", "address": "PLACE DE LA FERME ECOLE 7, 1410 WATERLOO", "source": "bpost_pudo"}, {"id": "bpost_637439", "lat": 50.68085, "lng": 4.3678, "name": "LIBRAIRIE BONAVENTURE.", "operator": "bpost", "type": "post_point", "subtype": "2", "address": "CHAUSSÉE D'OPHAIN 14, 1420 BRAINE-L'ALLEUD", "source": "bpost_pudo"}, {"id": "bpost_36890", "lat": 50.66568, "lng": 4.34818, "name": "BBOX PLACE DOPHA", "operator": "bpost", "type": "locker", "subtype": "4", "address": "RUE DE L'ÉGLISE 10A, 1421 BRAINE-L'ALLEUD", "source": "bpost_pudo"}, {"id": "bpost_186200", "lat": 50.66191, "lng": 4.13298, "name": "REBECQ", "operator": "bpost", "type": "post_office", "subtype": "1", "address": "RUE DU PONT 34, 1430 REBECQ", "source": "bpost_pudo"}, {"id": "bpost_17962", "lat": 50.73922, "lng": 4.39438, "name": "BBOX TOTAL RHODE", "operator": "bpost", "type": "locker", "subtype": "4", "address": "WATERLOOSE STEENWEG 254, 1640 SINT-GENESIUS-RODE", "source": "bpost_pudo"}, {"id": "bpost_41966", "lat": 50.82815, "lng": 4.30246, "name": "BBOX BUBBLE WASH ANDERLECHT", "operator": "bpost", "type": "locker", "subtype": "4", "address": "BERGENSE STEENWEG 873C, 1070 ANDERLECHT", "source": "bpost_pudo"}, {"id": "bpost_41752", "lat": 50.78802, "lng": 4.3753, "name": "BBOX DELHAIZE FORT JACO UCCLE", "operator": "bpost", "type": "locker", "subtype": "4", "address": "WATERLOOSE STEENWEG 1363, 1180 UKKEL", "source": "bpost_pudo"}, {"id": "bpost_101153", "lat": 50.68396, "lng": 4.37519, "name": "NIGHT & DAY 64 BRAINE", "operator": "bpost", "type": "post_point", "subtype": "2", "address": "RUE DES CROIX DU FEU 14-16, 1420 BRAINE-L'ALLEUD", "source": "bpost_pudo"}, {"id": "bpost_38240", "lat": 50.68428, "lng": 4.37562, "name": "BBOX-AUTOM. STATION BRAINE L ALL", "operator": "bpost", "type": "locker", "subtype": "4", "address": "PLACE DE LA GARE 30, 1420 BRAINE-L'ALLEUD", "source": "bpost_pudo"}, {"id": "bpost_41957", "lat": 50.80444, "lng": 4.35727, "name": "BBOX-AUTOM DELHAIZE DEFRÉ", "operator": "bpost", "type": "locker", "subtype": "4", "address": "DE FRELAAN 94, 1180 UKKEL", "source": "bpost_pudo"}, {"id": "bpost_637240", "lat": 50.81078, "lng": 4.34778, "name": "KLINICARE SHOP UCCLE", "operator": "bpost", "type": "post_point", "subtype": "2", "address": "OLMPJESLAAN 28-32, 1180 UKKEL", "source": "bpost_pudo"}, {"id": "bpost_636550", "lat": 50.83482, "lng": 4.28895, "name": "DOCKS MARKET", "operator": "bpost", "type": "post_point", "subtype": "2", "address": "VOORSTRAAT 1, 1070 ANDERLECHT", "source": "bpost_pudo"}, {"id": "bpost_100329", "lat": 50.68316, "lng": 4.3797, "name": "LIBR BEAU RIVAGE", "operator": "bpost", "type": "post_point", "subtype": "2", "address": "AVENUE RAYMOND BRASSINNE 4, 1420 BRAINE-L'ALLEUD", "source": "bpost_pudo"}, {"id": "bpost_618742", "lat": 50.7147, "lng": 4.39912, "name": "PRESS SHOP WATERLOO", "operator": "bpost", "type": "post_point", "subtype": "2", "address": "CHAUSSÉE DE BRUXELLES 292, 1410 WATERLOO", "source": "bpost_pudo"}, {"id": "bpost_192700", "lat": 50.7138, "lng": 4.39962, "name": "WATERLOO CENTRE", "operator": "bpost", "type": "post_office", "subtype": "1", "address": "CHAUSSÉE DE BRUXELLES 255, 1410 WATERLOO", "source": "bpost_pudo"}, {"id": "bpost_16607", "lat": 50.71383, "lng": 4.39966, "name": "BBOX WATERLOO BP", "operator": "bpost", "type": "locker", "subtype": "4", "address": "CHAUSSÉE DE BRUXELLES 255, 1410 WATERLOO", "source": "bpost_pudo"}, {"id": "bpost_40251", "lat": 50.7106, "lng": 4.39847, "name": "BBOX DELHAIZE WATERLOO", "operator": "bpost", "type": "locker", "subtype": "4", "address": "BOULEVARD HENRI ROLIN 7, 1410 WATERLOO", "source": "bpost_pudo"}, {"id": "bpost_619013", "lat": 50.78282, "lng": 4.08834, "name": "VOEDING & BAKKERIJ SCHOUKENS", "operator": "bpost", "type": "post_point", "subtype": "2", "address": "WOLVENSTRAAT 38, 1755 PAJOTTEGEM", "source": "bpost_pudo"}, {"id": "bpost_100279", "lat": 50.83783, "lng": 4.28499, "name": "PR SHOP WESTLAND CENTER", "operator": "bpost", "type": "post_point", "subtype": "2", "address": "SYLVAIN DUPUISLAAN 379, 1070 ANDERLECHT", "source": "bpost_pudo"}, {"id": "bpost_42413", "lat": 50.70922, "lng": 4.40026, "name": "BBOX CHAUSSURES LUXUS WATERLOO", "operator": "bpost", "type": "locker", "subtype": "4", "address": "CHAUSSÉE DE BRUXELLES 412, 1410 WATERLOO", "source": "bpost_pudo"}, {"id": "bpost_36866", "lat": 50.83901, "lng": 4.28452, "name": "BBOX WESTLAND AND", "operator": "bpost", "type": "locker", "subtype": "4", "address": "SYLVAIN DUPUISLAAN 433, 1070 ANDERLECHT", "source": "bpost_pudo"}, {"id": "bpost_37154", "lat": 50.84346, "lng": 4.25244, "name": "BBOX CARR. DILBEEK", "operator": "bpost", "type": "locker", "subtype": "4", "address": "NINOOFSESTEENWEG 491, 1700 DILBEEK", "source": "bpost_pudo"}, {"id": "bpost_37818", "lat": 50.80503, "lng": 4.3689, "name": "BBOX UCCLE ST-ELISABTH", "operator": "bpost", "type": "locker", "subtype": "4", "address": "DE FRELAAN 206, 1180 UKKEL", "source": "bpost_pudo"}, {"id": "bpost_804820", "lat": 50.70986, "lng": 4.40319, "name": "CARREFOUR MARKET WATERLOO", "operator": "bpost", "type": "post_point", "subtype": "2", "address": "DRÈVE RICHELLE 10, 1410 WATERLOO", "source": "bpost_pudo"}, {"id": "bpost_101107", "lat": 50.80219, "lng": 4.37305, "name": "Q8 VERT CHASSEUR UCCLE NEW", "operator": "bpost", "type": "post_point", "subtype": "2", "address": "WATERLOOSE STEENWEG 964, 1180 UKKEL", "source": "bpost_pudo"}, {"id": "bpost_42874", "lat": 50.84437, "lng": 4.23595, "name": "BBOX-AUTOM ARMONEA QUIETAS", "operator": "bpost", "type": "locker", "subtype": "4", "address": "BEZENBERG 10, 1700 DILBEEK", "source": "bpost_pudo"}, {"id": "bpost_41714", "lat": 50.70592, "lng": 4.40313, "name": "BBOX CARREFOUR MARKET WATERLOO", "operator": "bpost", "type": "locker", "subtype": "4", "address": "DRÈVE RICHELLE 10, 1410 WATERLOO", "source": "bpost_pudo"}, {"id": "bpost_41974", "lat": 50.84007, "lng": 4.29038, "name": "BBOX A.WILLEMYNS", "operator": "bpost", "type": "locker", "subtype": "4", "address": "ADOLPHE WILLEMYNSSTRAAT 279, 1070 ANDERLECHT", "source": "bpost_pudo"}, {"id": "bpost_36900", "lat": 50.67879, "lng": 4.38445, "name": "BBOX PL. ST. SÉBA.", "operator": "bpost", "type": "locker", "subtype": "4", "address": "PLACE SAINT-SÉBASTIEN DISTRIB, 1420 BRAINE-L'ALLEUD", "source": "bpost_pudo"}, {"id": "bpost_42531", "lat": 50.84471, "lng": 4.27406, "name": "BBOX DILBEEK BPOST", "operator": "bpost", "type": "locker", "subtype": "4", "address": "NINOOFSESTEENWEG 144, 1700 DILBEEK", "source": "bpost_pudo"}, {"id": "bpost_210400", "lat": 50.84478, "lng": 4.27421, "name": "DILBEEK", "operator": "bpost", "type": "post_office", "subtype": "1", "address": "NINOOFSESTEENWEG 144, 1700 DILBEEK", "source": "bpost_pudo"}, {"id": "bpost_619002", "lat": 50.84534, "lng": 4.27471, "name": "PRESS SHOP DILBEEK", "operator": "bpost", "type": "post_point", "subtype": "2", "address": "BARON R. DE VIRONLAAN 142, 1700 DILBEEK", "source": "bpost_pudo"}, {"id": "bpost_636683", "lat": 50.67125, "lng": 4.38552, "name": "AUX DELICES", "operator": "bpost", "type": "post_point", "subtype": "2", "address": "AVENUE ALPHONSE ALLARD 336, 1420 BRAINE-L'ALLEUD", "source": "bpost_pudo"}, {"id": "bpost_41319", "lat": 50.66689, "lng": 4.3817, "name": "BBOX P ALLIANCE BRAINE ALLEUD", "operator": "bpost", "type": "locker", "subtype": "4", "address": "AVENUE DE FINLANDE 9, 1420 BRAINE-L'ALLEUD", "source": "bpost_pudo"}, {"id": "bpost_41265", "lat": 50.84618, "lng": 4.29201, "name": "BBOX DELHAIZE PRINCE DE LIÈGE", "operator": "bpost", "type": "locker", "subtype": "4", "address": "NINOOFSESTEENWEG 1024, 1080 SINT-JANS-MOLENBEEK", "source": "bpost_pudo"}, {"id": "bpost_100897", "lat": 50.84633, "lng": 4.29185, "name": "TAC TIC", "operator": "bpost", "type": "post_point", "subtype": "2", "address": "NINOOFSESTEENWEG 1054, 1080 SINT-JANS-MOLENBEEK", "source": "bpost_pudo"}, {"id": "bpost_101188", "lat": 50.68734, "lng": 4.40471, "name": "TOTALENERGIES MONT-ST-JEAN", "operator": "bpost", "type": "post_point", "subtype": "2", "address": "CHAUSSÉE DE NIVELLES 2, 1420 BRAINE-L'ALLEUD", "source": "bpost_pudo"}, {"id": "bpost_40207", "lat": 50.68948, "lng": 4.06745, "name": "BBOX BOULANGERIE VANDEPARRE", "operator": "bpost", "type": "locker", "subtype": "4", "address": "BRUSSELSESTEENWEG 282, 7850 EDINGEN", "source": "bpost_pudo"}, {"id": "bpost_17192", "lat": 50.69002, "lng": 4.40905, "name": "BBOX-AUTOM CARREFOUR MONT-ST", "operator": "bpost", "type": "locker", "subtype": "4", "address": "CHAUSSÉE DE CHARLEROI 579, 1410 WATERLOO", "source": "bpost_pudo"}, {"id": "bpost_38683", "lat": 50.83389, "lng": 4.13238, "name": "BBOX FRESHVILLE LENNIK", "operator": "bpost", "type": "locker", "subtype": "4", "address": "NINOOFSESTEENWEG 180, 1750 LENNIK", "source": "bpost_pudo"}, {"id": "bpost_852000", "lat": 50.68854, "lng": 4.4103, "name": "CARREFOUR MONT SAINT-JEAN", "operator": "bpost", "type": "post_point", "subtype": "2", "address": "CHAUSSÉE DE CHARLEROI 579, 1410 WATERLOO", "source": "bpost_pudo"}, {"id": "bpost_41759", "lat": 50.69332, "lng": 4.57643, "name": "BBOX AD DELHAIZE LIMAL", "operator": "bpost", "type": "locker", "subtype": "4", "address": "AVENUE DE LA GARE 13, 1300 WAVRE", "source": "bpost_pudo"}, {"id": "bpost_850610", "lat": 50.68473, "lng": 4.57133, "name": "LIBRAIRIE DE L'EUROPE", "operator": "bpost", "type": "post_point", "subtype": "2", "address": "AVENUE ALBERT I 1, 1342 OTTIGNIES-LOUVAIN-LA-NEUVE", "source": "bpost_pudo"}, {"id": "bpost_42332", "lat": 50.69954, "lng": 4.58401, "name": "BBOX CHAUSSURES LUXUS BIERGES", "operator": "bpost", "type": "locker", "subtype": "4", "address": "BOULEVARD DE L'EUROPE 147, 1301 WAVRE", "source": "bpost_pudo"}, {"id": "bpost_36272", "lat": 50.70188, "lng": 4.5869, "name": "BBOX PRC EUR WAVRE", "operator": "bpost", "type": "locker", "subtype": "4", "address": "BOULEVARD DE L'EUROPE 131C, 1301 WAVRE", "source": "bpost_pudo"}, {"id": "bpost_101339", "lat": 50.71244, "lng": 4.58165, "name": "LOUIS DELHAIZE BIERGES NEW", "operator": "bpost", "type": "post_point", "subtype": "2", "address": "RUE DES COMBATTANTS 68, 1301 WAVRE", "source": "bpost_pudo"}, {"id": "bpost_632343", "lat": 50.71261, "lng": 4.5499, "name": "STATION Q8 LIMAL", "operator": "bpost", "type": "post_point", "subtype": "2", "address": "AVENUE DE MÉRODE 4, 1300 WAVRE", "source": "bpost_pudo"}, {"id": "bpost_17087", "lat": 50.71205, "lng": 4.60402, "name": "BBOX CARREFOUR BIERG", "operator": "bpost", "type": "locker", "subtype": "4", "address": "BOULEVARD DE L'EUROPE 49, 1301 WAVRE", "source": "bpost_pudo"}, {"id": "bpost_873200", "lat": 50.7114, "lng": 4.60549, "name": "CARREFOUR BIERGES", "operator": "bpost", "type": "post_point", "subtype": "2", "address": "BOULEVARD DE L'EUROPE 49, 1301 WAVRE", "source": "bpost_pudo"}, {"id": "bpost_180400", "lat": 50.66516, "lng": 4.56771, "name": "OTTIGNIES COEUR DE VILLE", "operator": "bpost", "type": "post_office", "subtype": "1", "address": "ESPACE DU COEUR DE VILLE 15, 1340 OTTIGNIES-LOUVAIN-LA-NEUVE", "source": "bpost_pudo"}, {"id": "bpost_36238", "lat": 50.69027, "lng": 4.61879, "name": "BBOX DECATHLON WAV", "operator": "bpost", "type": "locker", "subtype": "4", "address": "CHAUSSÉE DE NAMUR 270, 1300 WAVRE", "source": "bpost_pudo"}, {"id": "bpost_37815", "lat": 50.67001, "lng": 4.6031, "name": "BBOX RTE DE BLOCRY LLN", "operator": "bpost", "type": "locker", "subtype": "4", "address": "ROUTE DE BLOCRY DISTRIB, 1348 OTTIGNIES-LOUVAIN-LA-NEUVE", "source": "bpost_pudo"}, {"id": "bpost_36499", "lat": 50.71577, "lng": 4.60722, "name": "BBOX PL DES CARMES", "operator": "bpost", "type": "locker", "subtype": "4", "address": "PLACE DES CARMES 10, 1300 WAVRE", "source": "bpost_pudo"}, {"id": "bpost_42114", "lat": 50.71194, "lng": 4.61315, "name": "BBOX POP ‘N WASH WAVRE", "operator": "bpost", "type": "locker", "subtype": "4", "address": "RUE DE NAMUR 72, 1300 WAVRE", "source": "bpost_pudo"}, {"id": "bpost_100202", "lat": 50.71355, "lng": 4.61216, "name": "NIGHT AND DAY WAVRE", "operator": "bpost", "type": "post_point", "subtype": "2", "address": "CHAUSSÉE DE LOUVAIN 1B, 1300 WAVRE", "source": "bpost_pudo"},