{
  "version": 0.6,
  "generator": "Overpass API 0.7.62.10 2d4cfc48",
  "osm3s": {
    "timestamp_osm_base": "2026-02-26T19:43:58Z",
    "copyright": "The data included in this document is from www.openstreetmap.org. The data is made available under ODbL."
  },
  "elements": [

{
  "type": "node",
  "id": 241733354,
  "lat": 50.8168604,
  "lon": 6.0655236,
  "tags": {
    "amenity": "parcel_locker",
    "brand": "DHL Packstation",
    "brand:wikidata": "Q1766703",
    "brand:wikipedia": "de:Packstation",
    "colour": "yellow",
    "opening_hours": "24/7",
    "operator": "DHL",
    "operator:wikidata": "Q489815",
    "operator:wikipedia": "de:DHL",
    "parcel_locker:type": "cabinet",
    "parcel_mail_in": "yes",
    "parcel_pickup": "yes",
    "postal_code": "52072",
    "ref": "154"
  }
},
{
  "type": "node",
  "id": 305629738,
  "lat": 50.7790448,
  "lon": 6.0996252,
  "tags": {
    "amenity": "parcel_locker",
    "branch": "103",
    "brand": "DHL Packstation",
    "brand:wikidata": "Q1766703",
    "brand:wikipedia": "de:Packstation",
    "check_date": "2024-11-01",
    "opening_hours": "24/7",
    "operator": "DHL",
    "operator:wikidata": "Q489815",
    "operator:wikipedia": "de:DHL",
    "parcel_locker:type": "cabinet",
    "parcel_mail_in": "yes",
    "parcel_pickup": "yes",
    "postal_code": "52070",
    "ref": "103",
    "website": "https://www.packstation.de/"
  }
},
{
  "type": "node",
  "id": 305629739,
  "lat": 50.8203973,
  "lon": 6.1240410,
  "tags": {
    "amenity": "parcel_locker",
    "brand": "DHL Packstation",
    "brand:wikidata": "Q1766703",
    "brand:wikipedia": "de:Packstation",
    "operator": "DHL",
    "operator:wikidata": "Q489815",
    "operator:wikipedia": "de:DHL",
    "parcel_locker:type": "circular",
    "parcel_mail_in": "yes",
    "parcel_pickup": "yes",
    "postal_code": "52146",
    "ref": "106",
    "source": "estimated",
    "website": "https://www.packstation.de/"
  }
},
{
  "type": "node",
  "id": 380408742,
  "lat": 50.7598109,
  "lon": 6.1373367,
  "tags": {
    "amenity": "parcel_locker",
    "brand": "DHL Packstation",
    "brand:wikidata": "Q1766703",
    "brand:wikipedia": "de:Packstation",
    "operator": "DHL",
    "parcel_locker:type": "cabinet",
    "parcel_mail_in": "yes",
    "parcel_pickup": "yes",
    "postal_code": "52078",
    "ref": "102",
    "website": "https://www.packstation.de/"
  }
},
{
  "type": "node",
  "id": 417308605,
  "lat": 50.8613850,
  "lon": 6.0806170,
  "tags": {
    "amenity": "parcel_locker",
    "brand": "DHL Packstation",
    "brand:wikidata": "Q1766703",
    "operator": "DHL",
    "operator:wikidata": "Q489815",
    "parcel_locker:type": "cabinet",
    "parcel_mail_in": "yes",
    "parcel_pickup": "yes",
    "postal_code": "52134",
    "ref": "107",
    "website": "https://www.packstation.de/"
  }
},
{
  "type": "node",
  "id": 549729408,
  "lat": 51.1451361,
  "lon": 6.2840310,
  "tags": {
    "amenity": "parcel_locker",
    "brand": "DHL Packstation",
    "brand:wikidata": "Q1766703",
    "check_date": "2026-02-08",
    "operator": "DHL",
    "operator:wikidata": "Q489815",
    "parcel_mail_in": "yes",
    "ref": "108"
  }
},
{
  "type": "node",
  "id": 564296074,
  "lat": 51.2463565,
  "lon": 6.3948605,
  "tags": {
    "alt_name": "Packstation",
    "amenity": "parcel_locker",
    "brand": "DHL Packstation",
    "brand:wikidata": "Q1766703",
    "brand:wikipedia": "de:Packstation",
    "name": "DHL Packstation",
    "opening_hours": "24/7",
    "operator": "DHL",
    "operator:wikidata": "Q489815",
    "operator:wikipedia": "de:DHL",
    "parcel_locker:type": "cabinet",
    "parcel_mail_in": "yes",
    "parcel_pickup": "yes",
    "postal_code": "41747",
    "ref": "155"
  }
},
{
  "type": "node",
  "id": 567893169,
  "lat": 50.7686646,
  "lon": 6.0555100,
  "tags": {
    "amenity": "parcel_locker",
    "brand": "DHL Packstation",
    "brand:wikidata": "Q1766703",
    "brand:wikipedia": "de:Packstation",
    "check_date": "2025-09-16",
    "label_printer": "yes",
    "object:city": "Aachen",
    "object:country": "DE",
    "object:housenumber": "157",
    "object:postcode": "52074",
    "object:street": "Kronenberg",
    "opening_hours": "24/7",
    "operator": "DHL",
    "operator:wikidata": "Q489815",
    "parcel_locker:type": "cabinet",
    "parcel_mail_in": "yes",
    "parcel_pickup": "yes",
    "ref": "119",
    "wheelchair": "yes"
  }
},
{
  "type": "node",
  "id": 571595125,
  "lat": 50.7838023,
  "lon": 6.0745932,
  "tags": {
    "amenity": "parcel_locker",
    "brand": "DHL Packstation",
    "brand:wikidata": "Q1766703",
    "brand:wikipedia": "de:Packstation",
    "check_date": "2024-10-08",
    "operator": "DHL",
    "operator:wikidata": "Q489815",
    "parcel_locker:type": "cabinet",
    "parcel_mail_in": "yes",
    "parcel_pickup": "yes",
    "postal_code": "52072",
    "ref": "121",
    "website": "https://www.packstation.de/"
  }
},
{
  "type": "node",
  "id": 582000209,
  "lat": 50.9279018,
  "lon": 6.3654887,
  "tags": {
    "amenity": "parcel_locker",
    "brand": "DHL Packstation",
    "brand:wikidata": "Q1766703",
    "check_date": "2026-02-12",
    "operator": "DHL",
    "operator:wikidata": "Q489815",
    "parcel_mail_in": "yes",
    "parcel_pickup": "yes",
    "postal_code": "52428",
    "ref": "113",
    "website": "https://www.packstation.de/"
  }
},
{
  "type": "node",
  "id": 609002424,
  "lat": 50.9240603,
  "lon": 6.3642898,
  "tags": {
    "amenity": "parcel_locker",
    "brand": "DHL Packstation",
    "brand:wikidata": "Q1766703",
    "check_date": "2021-10-23",
    "fixme": "Ref",
    "note": "Paketbox",
    "operator": "DHL",
    "operator:wikidata": "Q489815",
    "parcel_locker:type": "parcel_box",
    "parcel_mail_in": "yes"
  }
},
{
  "type": "node",
  "id": 959798623,
  "lat": 50.9067227,
  "lon": 6.1745871,
  "tags": {
    "amenity": "parcel_locker",
    "brand": "DHL Packstation",
    "brand:wikidata": "Q1766703",
    "operator": "DHL",
    "operator:wikidata": "Q489815",
    "parcel_mail_in": "yes"
  }
},
{
  "type": "node",
  "id": 1133523066,
  "lat": 51.5841416,
  "lon": 6.2539185,
  "tags": {
    "amenity": "parcel_locker",
    "app_operated": "only",
    "brand": "DHL Packstation",
    "brand:wikidata": "Q1766703",
    "brand:wikipedia": "de:Packstation",
    "check_date": "2024-07-16",
    "colour": "yellow",
    "opening_hours": "24/7",
    "operator": "DHL",
    "operator:wikidata": "Q489815",
    "operator:wikipedia": "de:DHL",
    "parcel_locker:type": "cabinet",
    "parcel_mail_in": "yes",
    "parcel_pickup": "yes",
    "postal_code": "47623",
    "ref": "111"
  }
},
{
  "type": "node",
  "id": 1226485223,
  "lat": 50.7702708,
  "lon": 6.1166103,
  "tags": {
    "amenity": "parcel_locker",
    "app_operated": "only",
    "brand": "DHL Packstation",
    "brand:wikidata": "Q1766703",
    "brand:wikipedia": "de:Packstation",
    "check_date": "2025-05-25",
    "level": "0",
    "operator": "DHL",
    "operator:wikidata": "Q489815",
    "operator:wikipedia": "de:DHL",
    "parcel_locker:type": "cabinet",
    "parcel_mail_in": "yes",
    "parcel_pickup": "yes",
    "postal_code": "52066",
    "ref": "105",
    "website": "https://www.packstation.de/",
    "wheelchair": "yes"
  }
},
{
  "type": "node",
  "id": 1606519108,
  "lat": 50.7625575,
  "lon": 6.0975789,
  "tags": {
    "amenity": "parcel_locker",
    "brand": "DHL Packstation",
    "brand:wikidata": "Q1766703",
    "brand:wikipedia": "de:Packstation",
    "check_date": "2024-04-23",
    "operator": "DHL",
    "operator:wikidata": "Q489815",
    "operator:wikipedia": "de:DHL",
    "parcel_locker:type": "cabinet",
    "parcel_mail_in": "yes",
    "parcel_pickup": "yes",
    "postal_code": "52066",
    "ref": "120"
  }
},
{
  "type": "node",
  "id": 1708691092,
  "lat": 50.7630884,
  "lon": 6.0874426,
  "tags": {
    "amenity": "parcel_locker",
    "brand": "DHL Packstation",
    "brand:wikidata": "Q1766703",
    "brand:wikipedia": "de:Packstation",
    "check_date": "2025-06-28",
    "operator": "DHL",
    "operator:wikidata": "Q489815",
    "operator:wikipedia": "de:DHL",
    "parcel_locker:type": "cabinet",
    "parcel_mail_in": "yes",
    "parcel_pickup": "yes",
    "postal_code": "52066",
    "ref": "104",
    "surveillance": "outdoor"
  }
},
{
  "type": "node",
  "id": 2632322861,
  "lat": 50.7795402,
  "lon": 6.0772309,
  "tags": {
    "amenity": "parcel_locker",
    "brand": "DHL Packstation",
    "brand:wikidata": "Q1766703",
    "brand:wikipedia": "de:Packstation",
    "check_date": "2026-02-20",
    "operator": "DHL",
    "operator:wikidata": "Q489815",
    "operator:wikipedia": "de:DHL",
    "panoramax": "22faef3b-99dc-4c9d-a256-3d241a47ae5a",
    "parcel_locker:type": "cabinet",
    "parcel_mail_in": "yes",
    "parcel_pickup": "yes",
    "postal_code": "52062",
    "ref": "124",
    "website": "https://www.packstation.de/",
    "wheelchair": "yes"
  }
},
{
  "type": "node",
  "id": 2758966721,
  "lat": 51.3089284,
  "lon": 3.3871535,
  "tags": {
    "addr:city": "Sluis",
    "addr:housenumber": "8",
    "addr:postcode": "4524AR",
    "addr:street": "Zuiddijkstraat",
    "alt_name": "Afhaalrobot Apotheek Oostburg en Sluis",
    "amenity": "parcel_locker",
    "brand": "Service Apotheek",
    "brand:wikidata": "Q124129179",
    "contact:email": "mail@apotheekoostburg.nl",
    "contact:phone": "+31 117 452 170",
    "contact:website": "https://www.serviceapotheek.nl/oostburgsluis/",
    "name": "Afhaalautomaat Apotheek Oostburg en Sluis",
    "opening_hours": "24/7",
    "operator": "Apotheek Oostburg en Sluis",
    "source": "BAG",
    "source:date": "2014-03-24"
  }
},
{
  "type": "node",
  "id": 2770908670,
  "lat": 51.2796183,
  "lon": 4.0526597,
  "tags": {
    "addr:city": "Hulst",
    "addr:housenumber": "5",
    "addr:postcode": "4561EH",
    "addr:street": "Gentsestraat",
    "amenity": "parcel_locker",
    "brand": "DHL",
    "brand:wikidata": "Q489815",
    "capacity": "25",
    "check_date:opening_hours": "2024-10-12",
    "collection_times": "Mo-Sa 16:00; Su off",
    "description": "in \"terStal\"",
    "name": "DHL Pakketautomaat",
    "opening_hours": "Mo 10:00-17:30, Tu-Th 09:30-17:30, Fr 09:30-18:00, Sa 09:30-17:00, Su 13:00-18:00; PH off",
    "operator": "DHL Parcel",
    "operator:wikidata": "Q489815",
    "parcel_locker:type": "cabinet",
    "parcel_mail_in": "yes",
    "parcel_pickup": "yes",
    "ref:DHL": "NL-456102",
    "source": "BAG",
    "source:date": "2014-03-24"
  }
},
{
  "type": "node",
  "id": 2774675462,
  "lat": 50.7727125,
  "lon": 6.2129859,
  "tags": {
    "amenity": "parcel_locker",
    "brand": "DHL Packstation",
    "brand:wikidata": "Q1766703",
    "brand:wikipedia": "en:Packstation",
    "operator": "DHL",
    "operator:wikidata": "Q489815",
    "parcel_mail_in": "yes",
    "parcel_pickup": "yes",
    "postal_code": "52223",
    "ref": "109"
  }
},
{
  "type": "node",
  "id": 2873001082,
  "lat": 49.5222050,
  "lon": 5.9217217,
  "tags": {
    "amenity": "parcel_locker",
    "brand": "POST Luxembourg",
    "brand:wikidata": "Q1570910",
    "name": "PackUp",
    "operator": "POST Luxembourg",
    "parcel_locker:type": "cabinet",
    "parcel_mail_in": "yes",
    "ref": "0445",
    "website": "http://www.packup.lu"
  }
},
{
  "type": "node",
  "id": 2907833954,
  "lat": 51.4888709,
  "lon": 3.6469127,
  "tags": {
    "addr:city": "Middelburg",
    "addr:housenumber": "17",
    "addr:postcode": "4338PK",
    "addr:street": "Elektraweg",
    "amenity": "parcel_locker",
    "brand": "DHL",
    "brand:wikidata": "Q489815",
    "capacity": "unlimited",
    "check_date:opening_hours": "2024-10-12",
    "collection_times": "Mo-Sa 18:00; Su off",
    "name": "DHL Pakketautomaat",
    "opening_hours": "PH \"unknown\"; Mo-Fr 09:00-21:00, Sa 09:00-20:00; Su off",
    "parcel_locker:type": "cabinet",
    "parcel_mail_in": "yes",
    "parcel_pickup": "yes",
    "ref:DHL": "NL-433803",
    "source": "BAG",
    "source:date": "2014-06-09"
  }
},
{
  "type": "node",
  "id": 3054275597,
  "lat": 49.5341410,
  "lon": 5.8911824,
  "tags": {
    "amenity": "parcel_locker",
    "brand": "POST Luxembourg",
    "brand:wikidata": "Q1570910",
    "brand:wikipedia": "lb:Post Luxembourg",
    "name": "PackUp",
    "opening_hours": "Mo-Fr 08:00-18:00; Sa 08:00-12:00",
    "operator": "POST Luxembourg",
    "parcel_mail_in": "yes",
    "ref": "0461",
    "website": "http://www.packup.lu"
  }
},
{
  "type": "node",
  "id": 3054275598,
  "lat": 49.5273643,
  "lon": 5.8908755,
  "tags": {
    "amenity": "parcel_locker",
    "brand": "POST Luxembourg",
    "brand:wikidata": "Q1570910",
    "name": "PackUp",
    "opening_hours": "Tu-Fr 06:00-22:00; Sa-Tu 07:00-22:00; Mo off",
    "operator": "POST Luxembourg",
    "parcel_mail_in": "yes",
    "ref": "0462",
    "website": "http://www.packup.lu"
  }
},
{
  "type": "node",
  "id": 3054275599,
  "lat": 49.5251492,
  "lon": 5.8902794,
  "tags": {
    "amenity": "parcel_locker",
    "brand": "POST Luxembourg",
    "brand:wikidata": "Q1570910",
    "name": "PackUp",
    "opening_hours": "Mo-Fr 08:00-12:00,13:30-17:30",
    "operator": "POST Luxembourg",
    "parcel_mail_in": "yes",
    "parcel_pickup": "yes",
    "ref": "0453",
    "website": "http://www.packup.lu"
  }
},
{
  "type": "node",
  "id": 3054275601,
  "lat": 49.5149612,
  "lon": 5.8961083,
  "tags": {
    "amenity": "parcel_locker",
    "brand": "POST Luxembourg",
    "brand:wikidata": "Q1570910",
    "brand:wikipedia": "lb:Post Luxembourg",
    "name": "PackUp",
    "opening_hours": "Mo-Fr 08:00-12:00,13:30-17:00",
    "operator": "POST Luxembourg",
    "parcel_mail_in": "yes",
    "ref": "0451",
    "website": "http://www.packup.lu"
  }
},
{
  "type": "node",
  "id": 3110230082,
  "lat": 50.5766188,
  "lon": 6.2675587,
  "tags": {
    "amenity": "parcel_locker",
    "brand": "DHL Packstation",
    "brand:wikidata": "Q1766703",
    "brand:wikipedia": "de:Packstation",
    "opening_hours": "24/7",
    "operator": "DHL",
    "operator:wikidata": "Q489815",
    "operator:wikipedia": "de:DHL",
    "parcel_locker:type": "cabinet",
    "parcel_mail_in": "yes",
    "parcel_pickup": "yes",
    "postal_code": "52156",
    "ref": "108"
  }
},
{
  "type": "node",
  "id": 3206775210,
  "lat": 49.7567013,
  "lon": 6.0986207,
  "tags": {
    "amenity": "parcel_locker",
    "brand": "POST Luxembourg",
    "brand:wikidata": "Q1570910",
    "name": "PackUp 24/24 Mersch Total",
    "operator": "POST Luxembourg",
    "parcel_mail_in": "yes",
    "parcel_pickup": "yes"
  }
},
{
  "type": "node",
  "id": 3359217681,
  "lat": 49.5788270,
  "lon": 6.1332928,
  "tags": {
    "amenity": "parcel_locker",
    "check_date": "2021-02-22",
    "name": "BPM"
  }
},
{
  "type": "node",
  "id": 3359219559,
  "lat": 49.5848350,
  "lon": 6.1458148,
  "tags": {
    "amenity": "parcel_locker",
    "brand": "POST Luxembourg",
    "brand:wikidata": "Q1570910",
    "name": "PackUp",
    "operator": "POST Luxembourg",
    "parcel_mail_in": "yes",
    "parcel_pickup": "yes"
  }
},
{
  "type": "node",
  "id": 3454774087,
  "lat": 50.6360252,
  "lon": 3.0273145,
  "tags": {
    "addr:city": "Lambersart",
    "addr:housenumber": "208",
    "addr:postcode": "59130",
    "addr:street": "Avenue de Dunkerque",
    "amenity": "parcel_locker",
    "indoor": "yes",
    "operator": "Vinted, Amazon"
  }
},
{
  "type": "node",
  "id": 3676457770,
  "lat": 50.7857281,
  "lon": 6.0634175,
  "tags": {
    "amenity": "parcel_locker",
    "brand": "DHL Packstation",
    "brand:wikidata": "Q1766703",
    "brand:wikipedia": "de:Packstation",
    "check_date": "2025-01-22",
    "colour": "yellow",
    "display_operated": "yes",
    "label_printer": "yes",
    "operator": "DHL",
    "operator:wikidata": "Q489815",
    "operator:wikipedia": "de:DHL",
    "parcel_locker:type": "cabinet",
    "parcel_mail_in": "yes",
    "parcel_pickup": "yes",
    "postal_code": "52072",
    "ref": "125"
  }
},
{
  "type": "node",
  "id": 3941598553,
  "lat": 51.0329377,
  "lon": 4.4723806,
  "tags": {
    "addr:city": "Mechelen",
    "addr:housenumber": "2",
    "addr:postcode": "2800",
    "addr:street": "Rode Kruisplein",
    "amenity": "parcel_locker",
    "name": "BPACK Rode Kruisplein Mechelen",
    "operator": "bpost",
    "operator:wikidata": "Q740553",
    "operator:wikipedia": "nl:bpost",
    "parcel_mail_in": "yes",
    "parcel_pickup": "yes",
    "source": "survey",
    "source_ref": "https://www.mapillary.com/map/im/2Z4B9fMyFU2lKuGp1-UjDg/photo"
  }
},
{
  "type": "node",
  "id": 3943687875,
  "lat": 51.0174610,
  "lon": 4.4845502,
  "tags": {
    "addr:city": "Mechelen",
    "addr:housenumber": "2",
    "addr:postcode": "2800",
    "addr:street": "Koning Albertplein",
    "amenity": "parcel_locker",
    "brand": "bpost",
    "brand:wikidata": "Q740553",
    "name": "BPACK NMBS Mechelen",
    "operator": "bpost",
    "operator:wikidata": "Q740553",
    "operator:wikipedia": "nl:bpost",
    "parcel_mail_in": "yes",
    "parcel_pickup": "yes",
    "source": "survey",
    "source_ref": "https://theta360.com/s/koLkvS6u4xRqbiwIonxKiaaEy"
  }
},
{
  "type": "node",
  "id": 4136676189,
  "lat": 50.8361028,
  "lon": 4.3379779,
  "tags": {
    "amenity": "parcel_locker",
    "indoor": "yes",
    "opening_hours": "24/7",
    "operator": "bpost",
    "parcel_locker:type": "cabinet",
    "parcel_pickup": "yes",
    "website": "https://www.bpost.be/bpack247"
  }
},
{
  "type": "node",
  "id": 4184991552,
  "lat": 51.3378576,
  "lon": 5.9448055,
  "tags": {
    "amenity": "parcel_locker",
    "opening_hours": "24/7",
    "operator": "PostNL",
    "parcel_mail_in": "yes",
    "parcel_pickup": "yes"
  }
},
{
  "type": "node",
  "id": 4711978002,
  "lat": 49.6104972,
  "lon": 6.1274240,
  "tags": {
    "amenity": "parcel_locker",
    "check_date": "2023-08-10"
  }
},
{
  "type": "node",
  "id": 5014768608,
  "lat": 51.1625148,
  "lon": 4.4274069,
  "tags": {
    "amenity": "parcel_locker",
    "brand": "bpost",
    "brand:wikidata": "Q740553",
    "check_date": "2021-12-08",
    "currency:EUR": "yes",
    "name": "bpost bpack",
    "note": "added keys / tags as per https://wiki.openstreetmap.org/wiki/Proposed_features/Parcel_lockers_and_parcel_postbox",
    "opening_hours": "24/7",
    "operator": "bpost",
    "parcel_mail_in": "yes",
    "parcel_pickup": "yes",
    "payment:cards": "yes"
  }
},
{
  "type": "node",
  "id": 5104564057,
  "lat": 49.5993865,
  "lon": 6.1309620,
  "tags": {
    "addr:city": "Luxembourg",
    "addr:housenumber": "19",
    "addr:postcode": "2417",
    "addr:street": "Rue de Reims",
    "amenity": "parcel_locker",
    "brand": "POST Luxembourg",
    "brand:wikidata": "Q1570910",
    "check_date": "2024-09-02",
    "name": "PackUp 24/24 Luxembourg Gare 2",
    "operator": "POST Luxembourg",
    "parcel_mail_in": "yes",
    "parcel_pickup": "yes"
  }
},
{
  "type": "node",
  "id": 5107012832,
  "lat": 49.7502373,
  "lon": 6.1076370,
  "tags": {
    "amenity": "parcel_locker",
    "brand": "POST Luxembourg",
    "brand:wikidata": "Q1570910",
    "name": "PackUp 24/24 Mersch Post",
    "operator": "POST Luxembourg",
    "parcel_mail_in": "yes",
    "parcel_pickup": "yes"
  }
},
{
  "type": "node",
  "id": 5118303399,
  "lat": 50.6580230,
  "lon": 3.0745168,
  "tags": {
    "amenity": "parcel_locker",
    "brand": "Amazon Hub",
    "brand:wikidata": "Q100274430",
    "name": "Ribin",
    "operator": "Amazon"
  }
},
{
  "type": "node",
  "id": 5157373058,
  "lat": 49.5668582,
  "lon": 6.0801667,
  "tags": {
    "amenity": "parcel_locker",
    "brand": "POST Luxembourg",
    "brand:wikidata": "Q1570910",
    "name": "PackUp",
    "opening_hours": "24/7",
    "operator": "POST Luxembourg",
    "parcel_mail_in": "yes",
    "parcel_pickup": "yes"
  }
},
{
  "type": "node",
  "id": 5159571058,
  "lat": 49.8416997,
  "lon": 6.2877040,
  "tags": {
    "amenity": "parcel_locker",
    "brand": "POST Luxembourg",
    "brand:wikidata": "Q1570910",
    "name": "PackUp",
    "operator": "POST Luxembourg",
    "parcel_mail_in": "yes"
  }
},
{
  "type": "node",
  "id": 5190440196,
  "lat": 49.7176427,
  "lon": 6.2687251,
  "tags": {
    "amenity": "parcel_locker",
    "operator": "Post PackUp"
  }
},
{
  "type": "node",
  "id": 5190440218,
  "lat": 49.7059445,
  "lon": 6.2540886,
  "tags": {
    "amenity": "parcel_locker",
    "check_date": "2023-09-18",
    "operator": "Post PackUp"
  }
},
{
  "type": "node",
  "id": 5190516882,
  "lat": 49.7900951,
  "lon": 6.2192237,
  "tags": {
    "amenity": "parcel_locker",
    "operator": "Post PackUp"
  }
},
{
  "type": "node",
  "id": 5292231520,
  "lat": 49.8648216,
  "lon": 6.1546213,
  "tags": {
    "amenity": "parcel_locker",
    "brand": "POST Luxembourg",
    "brand:wikidata": "Q1570910",
    "name": "PackUp Diekirch-Gare",
    "operator": "POST Luxembourg",
    "parcel_mail_in": "yes",
    "ref": "0922",
    "website": "http://www.packup.lu"
  }
},
{
  "type": "node",
  "id": 5303297772,
  "lat": 50.6243988,
  "lon": 5.5659793,
  "tags": {
    "amenity": "parcel_locker",
    "brand": "bpost",
    "brand:wikidata": "Q740553",
    "check_date": "2024-09-18",
    "level": "0",
    "name": "Distributeur Gare Liège-Guillemins",
    "operator": "bpost",
    "parcel_mail_in": "yes",
    "parcel_pickup": "yes"
  }
},
{
  "type": "node",
  "id": 5318179673,
  "lat": 50.9817076,
  "lon": 5.0532699,
  "tags": {
    "amenity": "parcel_locker",
    "parcel_mail_in": "yes"
  }
},
{
  "type": "node",
  "id": 5362088386,
  "lat": 50.4046528,
  "lon": 4.4395660,
  "tags": {
    "amenity": "parcel_locker",
    "brand": "bpost",
    "brand:wikidata": "Q740553",
    "check_date": "2021-07-13",
    "opening_hours": "24/7",
    "operator": "bpost",
    "parcel_locker:type": "cabinet",
    "parcel_mail_in": "yes",
    "parcel_pickup": "yes"
  }
},
{
  "type": "node",
  "id": 5362099373,
  "lat": 50.8602751,
  "lon": 4.3606305,
  "tags": {
    "amenity": "parcel_locker",
    "brand": "bpost",
    "brand:wikidata": "Q740553",
    "level": "-1",
    "opening_hours": "24/7",
    "operator": "bpost",
    "parcel_mail_in": "yes",
    "parcel_pickup": "yes"
  }
},
{
  "type": "node",
  "id": 5364630397,
  "lat": 50.8737760,
  "lon": 6.1852343,
  "tags": {
    "amenity": "parcel_locker",
    "brand": "DHL Packstation",
    "brand:wikidata": "Q1766703",
    "brand:wikipedia": "de:Packstation",
    "operator": "DHL",
    "operator:wikidata": "Q489815",
    "parcel_locker:type": "cabinet",
    "parcel_mail_in": "yes",
    "parcel_pickup": "yes",
    "postal_code": "52477",
    "ref": "196"
  }
},
{
  "type": "node",
  "id": 5365904990,
  "lat": 50.8489166,
  "lon": 4.4717253,
  "tags": {
    "amenity": "parcel_locker",
    "brand": "bpost",
    "brand:wikidata": "Q740553",
    "check_date": "2025-11-01",
    "level": "0",
    "opening_hours": "24/7",
    "operator": "bpost",
    "parcel_mail_in": "yes",
    "parcel_pickup": "yes"
  }
},
{
  "type": "node",
  "id": 5595171499,
  "lat": 49.6181320,
  "lon": 6.0883372,
  "tags": {
    "amenity": "parcel_locker",
    "operator": "PackUp",
    "parcel_pickup": "yes",
    "ref": "0813"
  }
},
{
  "type": "node",
  "id": 5621896691,
  "lat": 49.5802469,
  "lon": 6.1156496,
  "tags": {
    "amenity": "parcel_locker",
    "brand": "POST Luxembourg",
    "brand:wikidata": "Q1570910",
    "name": "PackUp",
    "operator": "POST Luxembourg",
    "parcel_mail_in": "yes",
    "parcel_pickup": "yes"
  }
},
{
  "type": "node",
  "id": 5755430766,
  "lat": 51.0678008,
  "lon": 6.1095085,
  "tags": {
    "amenity": "parcel_locker",
    "brand": "DHL Packstation",
    "brand:wikidata": "Q1766703",
    "check_date": "2021-10-13",
    "fixme": "add display type and authentication type",
    "opening_hours": "24/7",
    "operator": "DHL",
    "operator:wikidata": "Q489815",
    "parcel_mail_in": "yes",
    "ref": "117"
  }
},
{
  "type": "node",
  "id": 5862922840,
  "lat": 50.6407868,
  "lon": 3.1546183,
  "tags": {
    "addr:postcode": "59650",
    "amenity": "parcel_locker",
    "name": "Le Kiosque",
    "office": "newspaper",
    "opening_hours": "Mo,We,Fr 07:30-13:00,15:00-18:30; Tu 07:00-13:00,15:00-18:30; Th 07:30-13:00; Sa 08:30-13:00,15:00-18:00; PH off; 2021 Dec 31 07:30-13:00,15:00-17:00; 2021 Dec 27 off",
    "operator": "La Poste",
    "operator:wikidata": "Q373724",
    "operator:wikipedia": "fr:La Poste (entreprise française)",
    "post_office": "post_partner",
    "ref:FR:LaPoste": "13084D",
    "ref:FR:SIRET": "81924063100013",
    "source": "LaPoste - 03/2019",
    "wheelchair": "no"
  }
},
{
  "type": "node",
  "id": 5892562391,
  "lat": 49.6568798,
  "lon": 6.0830113,
  "tags": {
    "amenity": "parcel_locker",
    "brand": "POST Luxembourg",
    "brand:wikidata": "Q1570910",
    "check_date": "2023-10-31",
    "name": "PackUp",
    "operator": "POST Luxembourg",
    "parcel_mail_in": "yes"
  }
},
{
  "type": "node",
  "id": 5980398065,
  "lat": 51.5883920,
  "lon": 4.7663364,
  "tags": {
    "amenity": "parcel_locker",
    "brand": "PostNL",
    "brand:wikidata": "Q5921598",
    "name": "PostNL Pakketautomaat",
    "operator": "PostNL",
    "operator:wikidata": "Q5921598",
    "parcel_mail_in": "yes",
    "parcel_pickup": "yes"
  }
},
{
  "type": "node",
  "id": 5980403435,
  "lat": 51.5971273,
  "lon": 4.7695923,
  "tags": {
    "addr:city": "Breda",
    "addr:housenumber": "5 PBA",
    "addr:postcode": "4815HA",
    "addr:street": "Belcrumweg",
    "amenity": "parcel_locker",
    "operator": "PostNL",
    "operator:wikidata": "Q5921598",
    "operator:wikipedia": "nl:PostNL",
    "parcel_mail_in": "yes",
    "parcel_pickup": "yes"
  }
},
{
  "type": "node",
  "id": 5991730965,
  "lat": 49.6534541,
  "lon": 6.1277479,
  "tags": {
    "amenity": "parcel_locker",
    "brand": "POST Luxembourg",
    "brand:wikidata": "Q1570910",
    "name": "PackUp",
    "operator": "POST Luxembourg",
    "parcel_mail_in": "yes",
    "parcel_pickup": "yes"
  }
},
{
  "type": "node",
  "id": 5995359413,
  "lat": 49.6280618,
  "lon": 6.1073966,
  "tags": {
    "amenity": "parcel_locker",
    "brand": "POST Luxembourg",
    "brand:wikidata": "Q1570910",
    "name": "PackUp",
    "operator": "POST Luxembourg",
    "parcel_mail_in": "yes",
    "parcel_pickup": "yes"
  }
},
{
  "type": "node",
  "id": 6043692890,
  "lat": 51.4915245,
  "lon": 4.0496410,
  "tags": {
    "amenity": "parcel_locker",
    "brand": "Budbee",
    "brand:wikidata": "Q123582538",
    "description": "pakketkluis",
    "indoor": "yes",
    "name": "Budbee",
    "opening_hours": "Mo-Sa 08:00-21:00",
    "operator": "Budbee;Bol.com;Albert Heijn",
    "parcel_mail_in": "yes",
    "parcel_pickup": "yes",
    "wheelchair": "yes"
  }
},
{
  "type": "node",
  "id": 6119981565,
  "lat": 50.6196328,
  "lon": 3.0650622,
  "tags": {
    "amenity": "parcel_locker",
    "brand": "Amazon Hub",
    "brand:wikidata": "Q16974764",
    "brand:wikipedia": "en:Amazon Locker",
    "check_date": "2025-03-16",
    "indoor": "yes",
    "name": "Amazon Locker",
    "operator": "Amazon"
  }
},
{
  "type": "node",
  "id": 6173992096,
  "lat": 51.5769532,
  "lon": 4.7704721,
  "tags": {
    "amenity": "parcel_locker",
    "brand": "PostNL",
    "brand:wikidata": "Q5921598",
    "collection_times": "00:00",
    "name": "PostNL Pakketautomaat",
    "operator": "PostNL",
    "operator:wikidata": "Q5921598",
    "parcel_mail_in": "yes",
    "parcel_pickup": "yes",
    "ref": "63 PBA"
  }
},
{
  "type": "node",
  "id": 6208568742,
  "lat": 51.5855071,
  "lon": 4.7894274,
  "tags": {
    "amenity": "parcel_locker",
    "brand": "PostNL",
    "brand:wikidata": "Q5921598",
    "name": "PostNL Pakketautomaat",
    "operator": "PostNL",
    "operator:wikidata": "Q5921598",
    "parcel_mail_in": "yes",
    "parcel_pickup": "yes"
  }
},
{
  "type": "node",
  "id": 6211769157,
  "lat": 51.5558051,
  "lon": 5.0707459,
  "tags": {
    "amenity": "parcel_locker",
    "brand": "PostNL",
    "brand:wikidata": "Q5921598",
    "image": "https://d1cuyjsrcm0gby.cloudfront.net/OaRCOv5IOfyBKzTQwzKJ-A/thumb-2048.jpg",
    "mapillary": "304117641232780",
    "name": "PostNL Pakketautomaat",
    "operator": "PostNL",
    "operator:wikidata": "Q5921598",
    "parcel_mail_in": "yes",
    "parcel_pickup": "yes"
  }
},
{
  "type": "node",
  "id": 6273834730,
  "lat": 51.4439435,
  "lon": 6.2703619,
  "tags": {
    "alt_name": "Packstation",
    "amenity": "parcel_locker",
    "brand": "DHL Packstation",
    "brand:wikidata": "Q1766703",
    "brand:wikipedia": "de:Packstation",
    "check_date": "2023-07-30",
    "description": "DHL Packstation 112, Josefstraße 3, 47638 Straelen",
    "name": "DHL Packstation",
    "operator": "DHL",
    "operator:wikidata": "Q489815",
    "operator:wikipedia": "de:DHL",
    "parcel_mail_in": "yes",
    "ref": "112",
    "short_name": "DHL"
  }
},
{
  "type": "node",
  "id": 6286975173,
  "lat": 50.6900180,
  "lon": 4.4090351,
  "tags": {
    "amenity": "parcel_locker",
    "brand": "bpost",
    "brand:wikidata": "Q740553",
    "name": "Distributeur Carrefour Mont-Saint-Jean",
    "opening_hours": "24/7",
    "operator": "bpost",
    "parcel_locker:type": "cabinet",
    "parcel_mail_in": "yes",
    "parcel_pickup": "yes",
    "website": "https://www.bpost.be/fr/distributeur-colis"
  }
},
{
  "type": "node",
  "id": 6345460271,
  "lat": 50.7839499,
  "lon": 4.5063510,
  "tags": {
    "amenity": "parcel_locker",
    "brand": "bpost",
    "brand:wikidata": "Q740553",
    "name": "bpost Automaat Colora Overijse",
    "opening_hours": "24/7",
    "operator": "bpost",
    "parcel_mail_in": "yes",
    "parcel_pickup": "yes"
  }
},
{
  "type": "node",
  "id": 6415608919,
  "lat": 50.7852198,
  "lon": 6.0531026,
  "tags": {
    "amenity": "parcel_locker",
    "brand": "DHL Packstation",
    "brand:wikidata": "Q1766703",
    "brand:wikipedia": "de:Packstation",
    "check_date": "2025-05-18",
    "label_printer": "yes",
    "object:city": "Aachen",
    "object:country": "DE",
    "object:housenumber": "6",
    "object:postcode": "52074",
    "object:street": "Kastanienweg",
    "opening_hours": "24/7",
    "operator": "DHL",
    "operator:wikidata": "Q489815",
    "parcel_locker:type": "cabinet",
    "parcel_mail_in": "yes",
    "parcel_pickup": "yes",
    "ref": "126"
  }
},
{
  "type": "node",
  "id": 6547062883,
  "lat": 50.8459090,
  "lon": 4.3572047,
  "tags": {
    "amenity": "parcel_locker",
    "brand": "bpost",
    "brand:wikidata": "Q740553",
    "level": "-1",
    "location": "underground",
    "name": "bpost",
    "operator": "bpost",
    "parcel_pickup": "yes"
  }
},
{
  "type": "node",
  "id": 6561332452,
  "lat": 51.0444102,
  "lon": 3.7516639,
  "tags": {
    "amenity": "parcel_locker",
    "brand": "bpost",
    "brand:wikidata": "Q740553",
    "name": "bpost De Punt",
    "opening_hours": "24/7",
    "operator": "bpost",
    "parcel_mail_in": "yes",
    "parcel_pickup": "yes"
  }
},
{
  "type": "node",
  "id": 6572234833,
  "lat": 51.5802166,
  "lon": 4.7366308,
  "tags": {
    "amenity": "parcel_locker",
    "brand": "PostNL",
    "brand:wikidata": "Q5921598",
    "check_date": "2024-02-23",
    "collection_times:signed": "no",
    "name": "PostNL Pakketautomaat",
    "opening_hours": "24/7",
    "operator": "PostNL",
    "operator:wikidata": "Q5921598",
    "parcel_mail_in": "yes",
    "parcel_pickup": "yes",
    "wheelchair": "yes"
  }
},
{
  "type": "node",
  "id": 6578966960,
  "lat": 50.8163032,
  "lon": 6.1544859,
  "tags": {
    "amenity": "parcel_locker",
    "brand": "Amazon Locker",
    "brand:wikidata": "Q16974764",
    "brand:wikipedia": "en:Amazon Locker",
    "check_date": "2025-06-16",
    "operator": "Amazon",
    "parcel_pickup": "yes"
  }
},
{
  "type": "node",
  "id": 6710782532,
  "lat": 50.6335848,
  "lon": 3.0981220,
  "tags": {
    "amenity": "parcel_locker",
    "brand": "Amazon Locker",
    "brand:wikidata": "Q16974764",
    "brand:wikipedia": "en:Amazon Locker",
    "name": "Amazon Locker - Elyas",
    "operator": "Amazon"
  }
},
{
  "type": "node",
  "id": 6779837754,
  "lat": 50.5919859,
  "lon": 4.3089081,
  "tags": {
    "amenity": "parcel_locker",
    "brand": "bpost",
    "brand:wikidata": "Q740553",
    "layer": "-1",
    "name": "Distributeur Shopping Nivelles",
    "opening_hours": "Mo-Sa 09:30-19:00",
    "operator": "bpost",
    "parcel_locker:type": "cabinet",
    "parcel_mail_in": "yes",
    "parcel_pickup": "yes",
    "website": "https://www.bpost.be/fr/distributeur-colis"
  }
},
{
  "type": "node",
  "id": 6786431634,
  "lat": 50.9619098,
  "lon": 5.5027976,
  "tags": {
    "amenity": "parcel_locker",
    "brand": "bpost",
    "brand:wikidata": "Q740553",
    "covered": "yes",
    "opening_hours": "24/7",
    "operator": "bpost",
    "parcel_mail_in": "yes",
    "parcel_pickup": "yes"
  }
},
{
  "type": "node",
  "id": 6806633271,
  "lat": 51.5843426,
  "lon": 4.8034503,
  "tags": {
    "amenity": "parcel_locker",
    "brand": "PostNL",
    "brand:wikidata": "Q5921598",
    "name": "PostNL Pakketautomaat",
    "operator": "PostNL",
    "operator:wikidata": "Q5921598",
    "parcel_mail_in": "yes",
    "parcel_pickup": "yes"
  }
},
{
  "type": "node",
  "id": 6816163524,
  "lat": 51.0979879,
  "lon": 4.1378025,
  "tags": {
    "amenity": "parcel_locker",
    "currency:EUR": "yes",
    "mapillary": "1082393026016329",
    "note": "bezocht 2019-09-21",
    "operator": "Qubee",
    "parcel_mail_in": "yes"
  }
},
{
  "type": "node",
  "id": 6819367871,
  "lat": 51.0062303,
  "lon": 3.8833184,
  "tags": {
    "amenity": "parcel_locker",
    "brand": "bpost",
    "brand:wikidata": "Q740553",
    "operator": "bpost",
    "operator:wikidata": "Q740553",
    "operator:wikipedia": "nl:bpost",
    "parcel_mail_in": "yes",
    "parcel_pickup": "yes"
  }
},
{
  "type": "node",
  "id": 6834810046,
  "lat": 49.6500702,
  "lon": 6.1266582,
  "tags": {
    "amenity": "parcel_locker",
    "brand": "POST Luxembourg",
    "brand:wikidata": "Q1570910",
    "name": "PackUp",
    "opening_hours": "24/7",
    "operator": "POST Luxembourg",
    "parcel_mail_in": "yes",
    "parcel_pickup": "yes",
    "ref": "0723",
    "website": "http://www.packup.lu",
    "wheelchair": "yes"
  }
},
{
  "type": "node",
  "id": 6853954547,
  "lat": 51.5751703,
  "lon": 4.7952407,
  "tags": {
    "amenity": "parcel_locker",
    "brand": "PostNL",
    "brand:wikidata": "Q5921598",
    "name": "PostNL Pakketautomaat",
    "operator": "PostNL",
    "operator:wikidata": "Q5921598",
    "parcel_mail_in": "yes",
    "parcel_pickup": "yes"
  }
},
{
  "type": "node",
  "id": 6858618403,
  "lat": 49.6437059,
  "lon": 6.2715895,
  "tags": {
    "amenity": "parcel_locker",
    "brand": "POST Luxembourg",
    "brand:wikidata": "Q1570910",
    "name": "Packup Station",
    "operator": "POST Luxembourg",
    "parcel_mail_in": "yes"
  }
},
{
  "type": "node",
  "id": 6942879315,
  "lat": 49.6059848,
  "lon": 6.1003800,
  "tags": {
    "amenity": "parcel_locker",
    "brand": "POST Luxembourg",
    "brand:wikidata": "Q1570910",
    "name": "Packup",
    "opening_hours": "24/7",
    "operator": "POST Luxembourg",
    "parcel_mail_in": "yes",
    "ref": "0192",
    "website": "http://www.packup.lu"
  }
},
{
  "type": "node",
  "id": 6994064448,
  "lat": 51.5917416,
  "lon": 4.7839763,
  "tags": {
    "amenity": "parcel_locker",
    "operator": "PostNL",
    "operator:wikidata": "Q5921598",
    "parcel_mail_in": "yes",
    "parcel_pickup": "yes",
    "wheelchair": "yes"
  }
},
{
  "type": "node",
  "id": 7023790584,
  "lat": 50.6167980,
  "lon": 5.5918706,
  "tags": {
    "amenity": "parcel_locker",
    "brand": "bpost",
    "brand:wikidata": "Q740553",
    "level": "0",
    "name": "Distributeur Belle-Ile PKG P1",
    "operator": "bpost",
    "parcel_mail_in": "yes",
    "parcel_pickup": "yes"
  }
},
{
  "type": "node",
  "id": 7040766869,
  "lat": 49.6286082,
  "lon": 6.1315031,
  "tags": {
    "amenity": "parcel_locker",
    "brand": "POST Luxembourg",
    "brand:wikidata": "Q1570910",
    "name": "Packup",
    "operator": "POST Luxembourg",
    "parcel_mail_in": "yes",
    "ref": "0144",
    "website": "http://www.packup.lu"
  }
},
{
  "type": "node",
  "id": 7126936990,
  "lat": 51.0249441,
  "lon": 3.1294431,
  "tags": {
    "amenity": "parcel_locker",
    "colour": "white",
    "operator": "bpost",
    "operator:wikidata": "Q740553",
    "operator:wikipedia": "nl:bpost",
    "parcel_mail_in": "yes",
    "parcel_pickup": "yes"
  }
},
{
  "type": "node",
  "id": 7148281209,
  "lat": 50.6367894,
  "lon": 3.0713151,
  "tags": {
    "amenity": "parcel_locker",
    "brand": "Amazon Hub",
    "brand:wikidata": "Q100274430",
    "brand:wikipedia": "en:Amazon Locker",
    "level": "0",
    "operator": "Amazon",
    "parcel_pickup": "yes",
    "ref": "satine"
  }
},
{
  "type": "node",
  "id": 7155977759,
  "lat": 51.4228613,
  "lon": 5.5006526,
  "tags": {
    "addr:city": "Eindhoven",
    "addr:housenumber": "303b",
    "addr:street": "Heezerweg",
    "amenity": "parcel_locker",
    "check_date": "2025-11-15",
    "operator": "PostNL",
    "parcel_mail_in": "yes"
  }
},
{
  "type": "node",
  "id": 7199946900,
  "lat": 50.6311499,
  "lon": 3.0553700,
  "tags": {
    "amenity": "parcel_locker",
    "brand": "Amazon Hub",
    "brand:wikidata": "Q16974764",
    "brand:wikipedia": "en:Amazon Locker",
    "indoor": "yes",
    "name": "Amazon Locker - Orli",
    "operator": "Amazon"
  }
},
{
  "type": "node",
  "id": 7216635202,
  "lat": 50.6320864,
  "lon": 3.0541471,
  "tags": {
    "amenity": "parcel_locker",
    "brand": "Amazon Hub",
    "brand:wikidata": "Q16974764",
    "brand:wikipedia": "en:Amazon Locker",
    "indoor": "yes",
    "name": "Amazon Locker - Regan",
    "operator": "Amazon"
  }
},
{
  "type": "node",
  "id": 7237106150,
  "lat": 49.7851763,
  "lon": 4.7116495,
  "tags": {
    "amenity": "parcel_locker",
    "brand": "Amazon Hub",
    "brand:wikidata": "Q16974764",
    "name": "Amazon Hub Locker",
    "operator": "Amazon"
  }
},
{
  "type": "node",
  "id": 7438489593,
  "lat": 51.1428619,
  "lon": 4.9480035,
  "tags": {
    "amenity": "parcel_locker",
    "covered": "no",
    "indoor": "no",
    "operator": "Cubee",
    "parcel_pickup": "yes"
  }
},
{
  "type": "node",
  "id": 7488230532,
  "lat": 50.7705314,
  "lon": 6.0583121,
  "tags": {
    "amenity": "parcel_locker",
    "brand": "DHL Packstation",
    "brand:wikidata": "Q1766703",
    "brand:wikipedia": "de:Packstation",
    "check_date": "2025-01-08",
    "display_operated": "yes",
    "label_printer": "yes",
    "object:city": "Aachen",
    "object:country": "DE",
    "object:housenumber": "50",
    "object:postcode": "52074",
    "object:street": "Weststraße",
    "operator": "DHL",
    "operator:wikidata": "Q489815",
    "parcel_locker:type": "cabinet",
    "parcel_mail_in": "yes",
    "parcel_pickup": "yes",
    "postal_code": "52074",
    "ref": "143"
  }
},
{
  "type": "node",
  "id": 7548026774,
  "lat": 50.7629816,
  "lon": 6.1369130,
  "tags": {
    "amenity": "parcel_locker",
    "brand": "DHL Packstation",
    "brand:wikidata": "Q1766703",
    "brand:wikipedia": "de:Packstation",
    "level": "0",
    "operator": "DHL",
    "parcel_locker:type": "cabinet",
    "parcel_mail_in": "yes",
    "parcel_pickup": "yes",
    "postal_code": "52078",
    "ref": "137",
    "website": "https://www.packstation.de/"
  }
},
{
  "type": "node",
  "id": 7560649132,
  "lat": 51.0326443,
  "lon": 3.7426070,
  "tags": {
    "amenity": "parcel_locker",
    "brand": "bpost",
    "brand:wikidata": "Q740553",
    "check_date": "2025-06-16",
    "opening_hours": "Mo-We 08:00-19:30; Fr-Su 08:00-19:30",
    "operator": "bpost",
    "parcel_pickup": "yes"
  }
},
{
  "type": "node",
  "id": 7593204801,
  "lat": 51.2088336,
  "lon": 6.3373323,
  "tags": {
    "alt_name": "Packstation",
    "amenity": "parcel_locker",
    "brand": "DHL Packstation",
    "brand:wikidata": "Q1766703",
    "brand:wikipedia": "de:Packstation",
    "check_date": "2025-09-28",
    "name": "DHL Packstation",
    "operator": "DHL",
    "operator:wikidata": "Q489815",
    "operator:wikipedia": "de:DHL",
    "parcel_mail_in": "yes",
    "parcel_pickup": "yes",
    "postal_code": "41169",
    "ref": "196",
    "short_name": "DHL",
    "surveillance": "outdoor"
  }
},
{
  "type": "node",
  "id": 7633393257,
  "lat": 50.6453689,
  "lon": 3.0070324,
  "tags": {
    "amenity": "parcel_locker",
    "name": "Point relais"
  }
},
{
  "type": "node",
  "id": 7777772035,
  "lat": 51.1561383,
  "lon": 6.3669445,
  "tags": {
    "amenity": "parcel_locker",
    "brand": "DHL Packstation",
    "brand:wikidata": "Q1766703",
    "operator": "DHL",
    "operator:wikidata": "Q489815",
    "parcel_mail_in": "yes",
    "parcel_pickup": "yes",
    "postal_code": "41179",
    "ref": "184"
  }
},
{
  "type": "node",
  "id": 7819696390,
  "lat": 49.7483331,
  "lon": 6.1124096,
  "tags": {
    "amenity": "parcel_locker",
    "brand": "POST Luxembourg",
    "brand:wikidata": "Q1570910",
    "name": "PackUp 24/24 Mersch Cactus",
    "operator": "POST Luxembourg",
    "parcel_mail_in": "yes"
  }
},
{
  "type": "node",
  "id": 7826756027,
  "lat": 49.8479995,
  "lon": 6.1028625,
  "tags": {
    "amenity": "parcel_locker",
    "brand": "POST Luxembourg",
    "brand:wikidata": "Q1570910",
    "indoor": "no",
    "name": "PackUp Ettelbruck Poste",
    "operator": "POST Luxembourg",
    "parcel_mail_in": "yes",
    "ref": "0904"
  }
},
{
  "type": "node",
  "id": 7826756028,
  "lat": 49.8479822,
  "lon": 6.1028900,
  "tags": {
    "amenity": "parcel_locker",
    "brand": "POST Luxembourg",
    "brand:wikidata": "Q1570910",
    "indoor": "no",
    "name": "PackUp Ettelbruck Poste",
    "operator": "POST Luxembourg",
    "parcel_mail_in": "yes",
    "ref": "0904"
  }
},
{
  "type": "node",
  "id": 7847333112,
  "lat": 49.5226825,
  "lon": 5.9075090,
  "tags": {
    "amenity": "parcel_locker",
    "brand": "POST Luxembourg",
    "brand:wikidata": "Q1570910",
    "name": "PackUp",
    "opening_hours": "24/7",
    "operator": "POST Luxembourg",
    "parcel_mail_in": "yes",
    "ref": "0466",
    "website": "http://www.packup.lu"
  }
},
{
  "type": "node",
  "id": 7862296790,
  "lat": 51.0296917,
  "lon": 4.4829366,
  "tags": {
    "amenity": "parcel_locker",
    "indoor": "no",
    "operator": "bpost",
    "parcel_mail_in": "yes",
    "parcel_pickup": "yes"
  }
},
{
  "type": "node",
  "id": 7899584792,
  "lat": 51.2211601,
  "lon": 6.2717893,
  "tags": {
    "alt_name": "Packstation",
    "amenity": "parcel_locker",
    "brand": "DHL Packstation",
    "brand:wikidata": "Q1766703",
    "brand:wikipedia": "de:Packstation",
    "fixme": "add display and authentication info",
    "name": "DHL Packstation 115",
    "opening_hours": "24/7",
    "operator": "DHL",
    "operator:wikidata": "Q489815",
    "operator:wikipedia": "de:DHL",
    "parcel_locker:type": "cabinet",
    "parcel_mail_in": "yes",
    "parcel_pickup": "yes",
    "postal_code": "41366",
    "ref": "115",
    "short_name": "DHL",
    "surveillance": "outdoor"
  }
},
{
  "type": "node",
  "id": 7967999220,
  "lat": 51.0346294,
  "lon": 5.1643507,
  "tags": {
    "amenity": "parcel_locker",
    "brand": "bpost",
    "brand:wikidata": "Q740553",
    "name": "Bpost Pakjesautomaat Paal",
    "parcel_mail_in": "yes",
    "parcel_pickup": "yes"
  }
},
{
  "type": "node",
  "id": 7968271627,
  "lat": 50.9755754,
  "lon": 5.0406910,
  "tags": {
    "amenity": "parcel_locker",
    "brand": "bpost",
    "brand:wikidata": "Q740553",
    "opening_hours": "24/7",
    "operator": "bpost",
    "parcel_mail_in": "yes",
    "parcel_pickup": "yes",
    "ref": "Automaat Lidl Diest"
  }
},
{
  "type": "node",
  "id": 7968271628,
  "lat": 50.9739273,
  "lon": 5.0428212,
  "tags": {
    "amenity": "parcel_locker",
    "brand": "bpost",
    "brand:wikidata": "Q740553",
    "name": "Bpost Pakjesautomaat",
    "opening_hours": "24/7",
    "operator": "bpost",
    "parcel_mail_in": "yes",
    "parcel_pickup": "yes",
    "ref": "Automaat Carrefour Diest"
  }
},
{
  "type": "node",
  "id": 8090703044,
  "lat": 50.9075956,
  "lon": 3.5293752,
  "tags": {
    "amenity": "parcel_locker",
    "app_operated": "no",
    "authentication:barcode_scanner": "yes",
    "brand": "bpost",
    "brand:wikidata": "Q740553",
    "display": "digital",
    "display_operated": "yes",
    "opening_hours": "24/7",
    "operator": "bpost",
    "operator:wikidata": "Q740553",
    "parcel_mail_in": "yes",
    "parcel_pickup": "yes",
    "ref": "Automaat Carrefour Kruisem",
    "website": "https://www.bpost.be/nl/verkooppunten/OOST-VLAANDEREN/KRUISEM-9770/AUTOMAAT%20CARREFOUR%20KRUISEM"
  }
},
{
  "type": "node",
  "id": 8149304684,
  "lat": 49.9326407,
  "lon": 6.2188766,
  "tags": {
    "amenity": "parcel_locker",
    "brand": "POST Luxembourg",
    "brand:wikidata": "Q1570910",
    "name": "PackUp",
    "operator": "POST Luxembourg",
    "parcel_mail_in": "yes"
  }
},
{
  "type": "node",
  "id": 8185330662,
  "lat": 49.7258789,
  "lon": 5.8398027,
  "tags": {
    "amenity": "parcel_locker",
    "opening_hours": "24/7",
    "operator": "Post Packup",
    "parcel_mail_in": "yes",
    "parcel_pickup": "yes"
  }
},
{
  "type": "node",
  "id": 8209615701,
  "lat": 50.7980836,
  "lon": 3.1846585,
  "tags": {
    "amenity": "parcel_locker",
    "covered": "no",
    "opening_hours": "24/7",
    "operator": "bpost",
    "operator:wikidata": "Q740553",
    "operator:wikipedia": "nl:bpost",
    "parcel_mail_in": "yes",
    "parcel_pickup": "yes"
  }
},
{
  "type": "node",
  "id": 8219983214,
  "lat": 49.6843465,
  "lon": 5.7953319,
  "tags": {
    "amenity": "parcel_locker",
    "operator": "bpost",
    "parcel_mail_in": "yes",
    "parcel_pickup": "yes"
  }
},
{
  "type": "node",
  "id": 8253565215,
  "lat": 50.7866965,
  "lon": 6.1024230,
  "tags": {
    "amenity": "parcel_locker",
    "app_operated": "only",
    "brand": "DHL Packstation",
    "brand:wikidata": "Q1766703",
    "brand:wikipedia": "de:Packstation",
    "check_date": "2025-08-27",
    "opening_hours": "24/7",
    "operator": "DHL",
    "operator:wikidata": "Q489815",
    "parcel_locker:type": "cabinet",
    "parcel_mail_in": "yes",
    "parcel_pickup": "yes",
    "postal_code": "52070",
    "ref": "166"
  }
},
{
  "type": "node",
  "id": 8266378546,
  "lat": 50.7894968,
  "lon": 3.1006457,
  "tags": {
    "amenity": "parcel_locker",
    "covered": "no",
    "opening_hours": "24/7",
    "operator": "bpost",
    "operator:wikidata": "Q740553",
    "operator:wikipedia": "nl:bpost",
    "parcel_mail_in": "yes"
  }
},
{
  "type": "node",
  "id": 8266424220,
  "lat": 50.7931502,
  "lon": 3.1254877,
  "tags": {
    "amenity": "parcel_locker",
    "covered": "no",
    "opening_hours": "24/7",
    "operator": "bpost",
    "operator:wikidata": "Q740553",
    "operator:wikipedia": "nl:bpost",
    "parcel_mail_in": "yes"
  }
},
{
  "type": "node",
  "id": 8286598131,
  "lat": 50.8926763,
  "lon": 3.0614069,
  "tags": {
    "amenity": "parcel_locker",
    "operator": "bpost",
    "operator:wikidata": "Q740553",
    "operator:wikipedia": "nl:bpost",
    "parcel_mail_in": "yes",
    "parcel_pickup": "yes"
  }
},
{
  "type": "node",
  "id": 8323775925,
  "lat": 50.4073353,
  "lon": 2.8338110,
  "tags": {
    "amenity": "parcel_locker",
    "brand": "Amazon Hub",
    "brand:wikidata": "Q100274430",
    "colour": "yellow",
    "name": "Amazon Hub Locker",
    "parcel_mail_in": "yes",
    "parcel_pickup": "yes",
    "ref": "julia",
    "wheelchair": "no"
  }
},
{
  "type": "node",
  "id": 8349552507,
  "lat": 49.9690357,
  "lon": 5.9335637,
  "tags": {
    "amenity": "parcel_locker",
    "operator": "POST Luxembourg",
    "operator:wikidata": "Q1570910",
    "parcel_mail_in": "yes",
    "postal_code": "9560"
  }
},
{
  "type": "node",
  "id": 8361553907,
  "lat": 50.8004474,
  "lon": 4.2861156,
  "tags": {
    "amenity": "parcel_locker",
    "brand": "bpost",
    "brand:wikidata": "Q740553",
    "check_date": "2024-09-15",
    "description:en": "Parcel Locker",
    "description:fr": "Distributeur de colis",
    "description:nl": "Pakjesautomaat",
    "name": "BBOX LOCKER WILDERSPORTCOMPLE",
    "opening_hours": "24/7",
    "operator": "bpost",
    "parcel_mail_in": "yes",
    "parcel_pickup": "yes",
    "website": "https://www.bpost.be/en/points-of-sale/VLAAMS-BRABANT/SINT-PIETERS-LEEUW-1600/BBOX%20LOCKER%20WILDERSPORTCOMPLE",
    "wheelchair": "yes"
  }
},
{
  "type": "node",
  "id": 8361561490,
  "lat": 50.7908412,
  "lon": 4.2948989,
  "tags": {
    "amenity": "parcel_locker",
    "description:en": "Parcel Locker",
    "description:fr": "Distributeur de colis",
    "description:nl": "Pakjesautomaat",
    "operator": "bpost",
    "parcel_pickup": "yes"
  }
},
{
  "type": "node",
  "id": 8397476407,
  "lat": 50.7357709,
  "lon": 4.2382880,
  "tags": {
    "amenity": "parcel_locker",
    "brand": "bpost",
    "brand:wikidata": "Q740553",
    "operator": "bpost",
    "parcel_pickup": "yes"
  }
},
{
  "type": "node",
  "id": 8397476408,
  "lat": 50.7333292,
  "lon": 4.2403454,
  "tags": {
    "amenity": "parcel_locker",
    "brand": "bpost",
    "brand:wikidata": "Q740553",
    "operator": "bpost",
    "parcel_pickup": "yes"
  }
},
{
  "type": "node",
  "id": 8397476409,
  "lat": 50.7808643,
  "lon": 4.2445888,
  "tags": {
    "amenity": "parcel_locker",
    "description:en": "Parcel Locker",
    "description:fr": "Distributeur de colis",
    "description:nl": "Pakjesautomaat",
    "operator": "bpost",
    "parcel_mail_in": "yes",
    "parcel_pickup": "yes"
  }
},
{
  "type": "node",
  "id": 8397538892,
  "lat": 50.9081571,
  "lon": 4.3654880,
  "tags": {
    "amenity": "parcel_locker",
    "operator": "bpost"
  }
},
{
  "type": "node",
  "id": 8397538893,
  "lat": 50.9019818,
  "lon": 4.3551864,
  "tags": {
    "amenity": "parcel_locker",
    "operator": "bpost"
  }
},
{
  "type": "node",
  "id": 8431420624,
  "lat": 50.9189579,
  "lon": 6.1742251,
  "tags": {
    "amenity": "parcel_locker",
    "brand": "DHL Packstation",
    "brand:wikidata": "Q1766703",
    "brand:wikipedia": "en:Packstation",
    "operator": "DHL",
    "operator:wikidata": "Q489815",
    "parcel_mail_in": "yes",
    "parcel_pickup": "yes"
  }
},
{
  "type": "node",
  "id": 8494113163,
  "lat": 50.6440057,
  "lon": 6.1868668,
  "tags": {
    "amenity": "parcel_locker",
    "brand": "DHL Packstation",
    "brand:wikidata": "Q1766703",
    "brand:wikipedia": "de:Packstation",
    "check_date": "2023-09-28",
    "operator": "DHL",
    "operator:wikidata": "Q489815",
    "operator:wikipedia": "de:DHL",
    "parcel_mail_in": "yes",
    "parcel_pickup": "yes",
    "postal_code": "52159",
    "ref": "175"
  }
},
{
  "type": "node",
  "id": 8532537984,
  "lat": 51.1353320,
  "lon": 4.5602851,
  "tags": {
    "amenity": "parcel_locker",
    "check_date": "2025-05-06",
    "operator": "bpost",
    "parcel_mail_in": "yes"
  }
},
{
  "type": "node",
  "id": 8558517998,
  "lat": 49.6514293,
  "lon": 6.2470372,
  "tags": {
    "amenity": "parcel_locker",
    "brand": "POST Luxembourg",
    "brand:wikidata": "Q1570910",
    "name": "PackUp",
    "opening_hours": "24/7",
    "operator": "POST Luxembourg",
    "parcel_mail_in": "yes"
  }
},
{
  "type": "node",
  "id": 8634583615,
  "lat": 49.8098155,
  "lon": 6.0952757,
  "tags": {
    "amenity": "parcel_locker",
    "parcel_mail_in": "yes",
    "parcel_pickup": "yes"
  }
},
{
  "type": "node",
  "id": 8634832688,
  "lat": 49.7889590,
  "lon": 6.0891861,
  "tags": {
    "amenity": "parcel_locker",
    "name": "PackUp",
    "operator": "POST Luxembourg",
    "operator:wikidata": "Q1570910"
  }
},
{
  "type": "node",
  "id": 8711847255,
  "lat": 51.1507013,
  "lon": 6.2838467,
  "tags": {
    "amenity": "parcel_locker",
    "brand": "Amazon Hub",
    "brand:wikidata": "Q100274430",
    "check_date": "2025-09-13",
    "operator": "Amazon",
    "parcel_pickup": "yes"
  }
},
{
  "type": "node",
  "id": 8712537603,
  "lat": 50.9161331,
  "lon": 6.3758500,
  "tags": {
    "amenity": "parcel_locker",
    "brand": "DHL Packstation",
    "brand:wikidata": "Q1766703",
    "opening_hours": "24/7",
    "operator": "DHL",
    "operator:wikidata": "Q489815",
    "parcel_mail_in": "yes",
    "parcel_pickup": "yes",
    "ref": "144"
  }
},
{
  "type": "node",
  "id": 8714941900,
  "lat": 50.9079973,
  "lon": 6.3614752,
  "tags": {
    "amenity": "parcel_locker",
    "brand": "DHL Packstation",
    "brand:wikidata": "Q1766703",
    "brand:wikipedia": "de:Packstation",
    "object:housenumber": "18",
    "object:street": "Magaretenstraße",
    "opening_hours": "24/7",
    "operator": "DHL",
    "operator:wikidata": "Q489815",
    "operator:wikipedia": "de:DHL",
    "parcel_locker:type": "cabinet",
    "parcel_mail_in": "yes",
    "parcel_pickup": "yes"
  }
},
{
  "type": "node",
  "id": 8729103927,
  "lat": 50.9272646,
  "lon": 6.3726825,
  "tags": {
    "amenity": "parcel_locker",
    "brand": "Amazon Locker",
    "brand:wikidata": "Q16974764",
    "check_date": "2026-02-08",
    "opening_hours": "24/7",
    "operator": "Amazon",
    "parcel_mail_in": "yes",
    "parcel_pickup": "yes",
    "ref": "ileya"
  }
},
{
  "type": "node",
  "id": 8738719045,
  "lat": 50.9997044,
  "lon": 3.8712000,
  "tags": {
    "amenity": "parcel_locker",
    "parcel_mail_in": "yes",
    "parcel_pickup": "yes"
  }
},
{
  "type": "node",
  "id": 8743054521,
  "lat": 50.6060472,
  "lon": 6.3065923,
  "tags": {
    "amenity": "parcel_locker",
    "brand": "DHL Packstation",
    "brand:wikidata": "Q1766703",
    "brand:wikipedia": "en:Packstation",
    "operator": "DHL",
    "operator:wikidata": "Q489815",
    "parcel_mail_in": "yes",
    "parcel_pickup": "yes",
    "postal_code": "52152",
    "ref": "163"
  }
},
{
  "type": "node",
  "id": 8743627203,
  "lat": 50.8668502,
  "lon": 6.0976282,
  "tags": {
    "amenity": "parcel_locker",
    "brand": "Amazon Locker",
    "brand:wikidata": "Q16974764",
    "brand:wikipedia": "en:Amazon Locker",
    "operator": "Amazon",
    "parcel_pickup": "yes"
  }
},
{
  "type": "node",
  "id": 8745246004,
  "lat": 49.5799892,
  "lon": 6.1180410,
  "tags": {
    "amenity": "parcel_locker",
    "brand": "POST Luxembourg",
    "brand:wikidata": "Q1570910",
    "name": "PackUp",
    "operator": "POST Luxembourg",
    "parcel_mail_in": "yes"
  }
},
{
  "type": "node",
  "id": 8756709948,
  "lat": 51.5914288,
  "lon": 4.7620928,
  "tags": {
    "amenity": "parcel_locker",
    "operator": "PostNL",
    "operator:wikidata": "Q5921598",
    "parcel_mail_in": "yes",
    "parcel_pickup": "yes"
  }
},
{
  "type": "node",
  "id": 8771914279,
  "lat": 51.1395147,
  "lon": 6.2714913,
  "tags": {
    "amenity": "parcel_locker",
    "brand": "DHL Packstation",
    "brand:wikidata": "Q1766703",
    "opening_hours": "24/7",
    "operator": "DHL",
    "operator:wikidata": "Q489815",
    "parcel_mail_in": "yes",
    "ref": "216"
  }
},
{
  "type": "node",
  "id": 8775734220,
  "lat": 50.1257973,
  "lon": 6.0009988,
  "tags": {
    "amenity": "parcel_locker",
    "brand": "POST Luxembourg",
    "brand:wikidata": "Q1570910",
    "name": "PackUp",
    "operator": "POST Luxembourg",
    "parcel_mail_in": "yes",
    "parcel_pickup": "yes"
  }
},
{
  "type": "node",
  "id": 8777569909,
  "lat": 50.8364106,
  "lon": 6.0798817,
  "tags": {
    "amenity": "parcel_locker",
    "brand": "DHL Packstation",
    "brand:wikidata": "Q1766703",
    "brand:wikipedia": "de:Packstation",
    "opening_hours": "Mo-Su 08:00-20:00",
    "operator": "DHL",
    "operator:wikidata": "Q489815",
    "operator:wikipedia": "de:DHL",
    "parcel_locker:type": "cabinet",
    "parcel_mail_in": "yes",
    "parcel_pickup": "yes",
    "postal_code": "52134",
    "ref": "130",
    "surveillance": "outdoor"
  }
},
{
  "type": "node",
  "id": 8807920908,
  "lat": 50.8231228,
  "lon": 6.2520035,
  "tags": {
    "amenity": "parcel_locker",
    "brand": "Amazon Locker",
    "brand:wikidata": "Q16974764",
    "brand:wikipedia": "en:Amazon Locker",
    "check_date": "2025-06-11",
    "name": "ira",
    "operator": "Amazon",
    "parcel_pickup": "yes",
    "ref": "ira"
  }
},
{
  "type": "node",
  "id": 8816577085,
  "lat": 51.1504338,
  "lon": 6.2819708,
  "tags": {
    "amenity": "parcel_locker",
    "brand": "DHL Packstation",
    "brand:wikidata": "Q1766703",
    "brand:wikipedia": "de:Packstation",
    "capacity": "101",
    "check_date": "2025-09-06",
    "opening_hours": "24/7",
    "operator": "DHL",
    "operator:wikidata": "Q489815",
    "operator:wikipedia": "de:DHL",
    "parcel_locker:type": "cabinet",
    "parcel_mail_in": "yes",
    "parcel_pickup": "yes",
    "ref": "142"
  }
},
{
  "type": "node",
  "id": 8827448373,
  "lat": 50.6389771,
  "lon": 3.0209719,
  "tags": {
    "amenity": "parcel_locker",
    "brand": "Amazon Hub",
    "brand:wikidata": "Q16974764",
    "name": "Amazon Hub Locker",
    "operator": "Amazon locker",
    "parcel_pickup": "yes",
    "ref": "crosne"
  }
},
{
  "type": "node",
  "id": 8867962199,
  "lat": 51.1748500,
  "lon": 4.4247565,
  "tags": {
    "amenity": "parcel_locker",
    "operator": "bpost",
    "parcel_mail_in": "yes",
    "parcel_pickup": "yes"
  }
},
{
  "type": "node",
  "id": 8893042216,
  "lat": 51.1345826,
  "lon": 4.3895592,
  "tags": {
    "amenity": "parcel_locker",
    "brand": "bpost",
    "brand:wikidata": "Q740553",
    "name": "bpost AD Delhaize Aartselaar",
    "operator": "bpost",
    "parcel_mail_in": "yes",
    "parcel_pickup": "yes"
  }
},
{
  "type": "node",
  "id": 8943840969,
  "lat": 49.5096160,
  "lon": 6.0119653,
  "tags": {
    "amenity": "parcel_locker",
    "brand": "POST Luxembourg",
    "brand:wikidata": "Q1570910",
    "name": "PackUp",
    "operator": "POST Luxembourg",
    "parcel_mail_in": "yes",
    "parcel_pickup": "yes"
  }
},
{
  "type": "node",
  "id": 8946987681,
  "lat": 51.0242660,
  "lon": 4.4805906,
  "tags": {
    "amenity": "parcel_locker",
    "brand": "bpost",
    "brand:wikidata": "Q740553",
    "name": "bpost Pakjesautomaat Lange Schipstraat",
    "operator": "bpost",
    "parcel_mail_in": "yes",
    "parcel_pickup": "yes",
    "payment:app": "yes"
  }
},
{
  "type": "node",
  "id": 8953873969,
  "lat": 50.7502037,
  "lon": 6.1711739,
  "tags": {
    "amenity": "parcel_locker",
    "brand": "DHL Packstation",
    "brand:wikidata": "Q1766703",
    "brand:wikipedia": "de:Packstation",
    "opening_hours": "24/7",
    "operator": "DHL",
    "operator:wikidata": "Q489815",
    "operator:wikipedia": "de:DHL",
    "parcel_locker:type": "cabinet",
    "parcel_mail_in": "yes",
    "parcel_pickup": "yes",
    "postal_code": "52078",
    "ref": "173"
  }
},
{
  "type": "node",
  "id": 8959388472,
  "lat": 50.6658968,
  "lon": 2.9734599,
  "tags": {
    "amenity": "parcel_locker",
    "brand": "Amazon Hub",
    "brand:wikidata": "Q16974764",
    "name": "Amazon Hub Locker",
    "operator": "Amazon"
  }
},
{
  "type": "node",
  "id": 8961144854,
  "lat": 51.5914544,
  "lon": 4.8345417,
  "tags": {
    "amenity": "parcel_locker",
    "brand": "PostNL",
    "brand:wikidata": "Q5921598",
    "name": "PostNL Pakketautomaat",
    "operator": "PostNL",
    "operator:wikidata": "Q5921598",
    "parcel_mail_in": "yes",
    "parcel_pickup": "yes"
  }
},
{
  "type": "node",
  "id": 8980139582,
  "lat": 49.8456124,
  "lon": 6.0966590,
  "tags": {
    "amenity": "parcel_locker",
    "brand": "POST Luxembourg",
    "brand:wikidata": "Q1570910",
    "check_date": "2025-07-31",
    "indoor": "no",
    "name": "PackUp Ettelbruck Cactus",
    "operator": "POST Luxembourg",
    "parcel_mail_in": "yes",
    "ref": "0906"
  }
},
{
  "type": "node",
  "id": 9031714764,
  "lat": 51.1717364,
  "lon": 4.1440307,
  "tags": {
    "amenity": "parcel_locker",
    "brand": "bpost",
    "brand:wikidata": "Q740553",
    "check_date": "2025-05-19",
    "level": "0",
    "opening_hours": "24/7",
    "operator": "bpost",
    "parcel_mail_in": "yes",
    "parcel_pickup": "yes"
  }
},
{
  "type": "node",
  "id": 9035081696,
  "lat": 49.7362203,
  "lon": 4.7076364,
  "tags": {
    "amenity": "parcel_locker",
    "blind": "yes",
    "brand": "Amazone Locker",
    "covered": "no",
    "indoor": "no",
    "manufacturer": "Amazon Locker",
    "name": "Amazone Locker",
    "operator": "Amazon"
  }
},
{
  "type": "node",
  "id": 9061163773,
  "lat": 51.2872467,
  "lon": 6.3789317,
  "tags": {
    "amenity": "parcel_locker",
    "brand": "DHL Packstation",
    "brand:wikidata": "Q1766703",
    "operator": "DHL",
    "operator:wikidata": "Q489815",
    "parcel_locker:type": "cabinet",
    "parcel_mail_in": "yes",
    "parcel_pickup": "yes",
    "postal_code": "41749",
    "ref": "120"
  }
},
{
  "type": "node",
  "id": 9061163774,
  "lat": 51.2866892,
  "lon": 6.3636072,
  "tags": {
    "amenity": "parcel_locker",
    "check_date": "2025-08-17",
    "operator": "DHL",
    "parcel_locker:type": "cabinet",
    "parcel_mail_in": "yes",
    "parcel_pickup": "yes",
    "postal_code": "41749",
    "ref": "159"
  }
},
{
  "type": "node",
  "id": 9062795369,
  "lat": 50.3414555,
  "lon": 3.1076968,
  "tags": {
    "amenity": "parcel_locker",
    "name": "Celia"
  }
},
{
  "type": "node",
  "id": 9063584431,
  "lat": 51.1688540,
  "lon": 4.9894905,
  "tags": {
    "amenity": "parcel_locker",
    "brand": "bpost",
    "brand:wikidata": "Q740553",
    "mapillary": "3052998701602380",
    "operator": "bpost",
    "parcel_mail_in": "yes",
    "parcel_pickup": "yes"
  }
},
{
  "type": "node",
  "id": 9077051012,
  "lat": 50.6671324,
  "lon": 2.9770617,
  "tags": {
    "amenity": "parcel_locker",
    "brand": "Amazon Hub",
    "brand:wikidata": "Q16974764",
    "name": "Amazon Hub Locker",
    "operator": "Amazon",
    "operator:wikidata": "Q3884",
    "ref": "Tanya"
  }
},
{
  "type": "node",
  "id": 9084186517,
  "lat": 51.5730495,
  "lon": 4.7501938,
  "tags": {
    "amenity": "parcel_locker",
    "colour": "orange",
    "description:en": "postbox for sending and receiving mail",
    "description:nl": "PostNL pakket en briefautomaat",
    "opening_hours": "24/7",
    "operator": "PostNL",
    "operator:wikipedia": "nl:PostNL",
    "parcel_pickup": "yes"
  }
},
{
  "type": "node",
  "id": 9109026764,
  "lat": 50.7858932,
  "lon": 6.0721985,
  "tags": {
    "amenity": "parcel_locker",
    "brand": "Amazon Locker",
    "brand:wikidata": "Q16974764",
    "brand:wikipedia": "en:Amazon Locker",
    "check_date": "2024-11-17",
    "indoor": "no",
    "name": "invana",
    "opening_hours": "24/7",
    "operator": "Amazon",
    "parcel_pickup": "yes",
    "ref": "invana",
    "source": "survey",
    "wheelchair": "yes"
  }
},
{
  "type": "node",
  "id": 9110365622,
  "lat": 50.6500655,
  "lon": 4.6062833,
  "tags": {
    "amenity": "parcel_locker",
    "operator": "bpost",
    "parcel_locker:type": "cabinet",
    "parcel_mail_in": "yes",
    "parcel_pickup": "yes"
  }
},
{
  "type": "node",
  "id": 9140476890,
  "lat": 50.6903002,
  "lon": 4.6187549,
  "tags": {
    "amenity": "parcel_locker",
    "brand": "bpost",
    "brand:wikidata": "Q740553",
    "indoor": "no",
    "name": "Distributeur Decathlon Wavre",
    "opening_hours": "24/7",
    "operator": "bpost",
    "parcel_locker:type": "cabinet",
    "parcel_mail_in": "yes",
    "parcel_pickup": "yes",
    "website": "https://www.bpost.be/fr/distributeur-colis"
  }
},
{
  "type": "node",
  "id": 9152678973,
  "lat": 51.3301947,
  "lon": 6.3387511,
  "tags": {
    "amenity": "parcel_locker",
    "brand": "DHL Packstation",
    "brand:wikidata": "Q1766703",
    "brand:wikipedia": "de:Packstation",
    "check_date": "2023-06-17",
    "indoor": "no",
    "operator": "DHL",
    "operator:wikidata": "Q489815",
    "operator:wikipedia": "de:DHL",
    "parcel_mail_in": "yes",
    "parcel_pickup": "yes",
    "ref": "101"
  }
},
{
  "type": "node",
  "id": 9171812615,
  "lat": 50.7648891,
  "lon": 6.0812831,
  "tags": {
    "amenity": "parcel_locker",
    "brand": "Amazon Locker",
    "brand:wikidata": "Q16974764",
    "check_date": "2025-03-01",
    "operator": "Amazon",
    "parcel_pickup": "yes",
    "ref": "jael"
  }
},
{
  "type": "node",
  "id": 9186794992,
  "lat": 51.0863698,
  "lon": 4.2580963,
  "tags": {
    "amenity": "parcel_locker",
    "brand": "bpost",
    "brand:wikidata": "Q740553",
    "name": "BBOX-AUTOM POLITIE K-BRABANT",
    "opening_hours": "24/7",
    "operator": "bpost",
    "parcel_mail_in": "yes",
    "parcel_pickup": "yes",
    "ref": "PACK247"
  }
},
{
  "type": "node",
  "id": 9208645158,
  "lat": 50.7508421,
  "lon": 6.1560596,
  "tags": {
    "amenity": "parcel_locker",
    "brand": "DHL Packstation",
    "brand:wikidata": "Q1766703",
    "brand:wikipedia": "de:Packstation",
    "operator": "DHL",
    "operator:wikidata": "Q489815",
    "operator:wikipedia": "de:DHL",
    "parcel_locker:type": "cabinet",
    "parcel_mail_in": "yes",
    "parcel_pickup": "yes",
    "postal_code": "52078",
    "ref": "127",
    "website": "https://www.packstation.de/"
  }
},
{
  "type": "node",
  "id": 9208645159,
  "lat": 50.7576110,
  "lon": 6.1524121,
  "tags": {
    "amenity": "parcel_locker",
    "brand": "DHL Packstation",
    "brand:wikidata": "Q1766703",
    "brand:wikipedia": "de:Packstation",
    "check_date": "2025-03-10",
    "operator": "DHL",
    "operator:wikidata": "Q489815",
    "operator:wikipedia": "de:DHL",
    "parcel_locker:type": "cabinet",
    "parcel_mail_in": "yes",
    "parcel_pickup": "yes",
    "postal_code": "52078",
    "ref": "198",
    "website": "https://www.packstation.de/"
  }
},
{
  "type": "node",
  "id": 9218328924,
  "lat": 50.8686938,
  "lon": 4.7125916,
  "tags": {
    "amenity": "parcel_locker",
    "authentication:barcode_scanner": "yes",
    "brand": "bpost",
    "brand:wikidata": "Q740553",
    "capacity": "184",
    "colour": "white",
    "currency:EUR": "yes",
    "opening_hours": "24/7",
    "operator": "bpost",
    "parcel_mail_in": "yes",
    "parcel_pickup": "yes",
    "wheelchair": "yes"
  }
},
{
  "type": "node",
  "id": 9224949740,
  "lat": 50.7758296,
  "lon": 6.1479500,
  "tags": {
    "amenity": "parcel_locker",
    "app_operated": "only",
    "brand": "DHL Packstation",
    "brand:wikidata": "Q1766703",
    "brand:wikipedia": "de:Packstation",
    "operator": "DHL",
    "operator:wikidata": "Q489815",
    "parcel_locker:type": "cabinet",
    "parcel_mail_in": "yes",
    "parcel_pickup": "yes",
    "postal_code": "52080",
    "ref": "174"
  }
},
{
  "type": "node",
  "id": 9226592279,
  "lat": 50.8807523,
  "lon": 4.3282294,
  "tags": {
    "amenity": "parcel_locker",
    "brand": "bpost",
    "brand:wikidata": "Q740553",
    "operator": "bpost",
    "operator:wikidata": "Q740553",
    "parcel_pickup": "yes"
  }
},
{
  "type": "node",
  "id": 9233484487,
  "lat": 50.8845410,
  "lon": 4.3067569,
  "tags": {
    "amenity": "parcel_locker",
    "operator": "bpost",
    "operator:wikidata": "Q740553",
    "parcel_pickup": "yes"
  }
},
{
  "type": "node",
  "id": 9233498961,
  "lat": 51.1371478,
  "lon": 6.2962724,
  "tags": {
    "amenity": "parcel_locker",
    "brand": "Amazon Hub",
    "brand:wikidata": "Q100274430",
    "check_date": "2025-01-18",
    "operator": "Amazon",
    "parcel_pickup": "yes"
  }
},
{
  "type": "node",
  "id": 9256424951,
  "lat": 49.5995664,
  "lon": 6.1309830,
  "tags": {
    "addr:city": "Luxembourg",
    "addr:housenumber": "19",
    "addr:postcode": "2417",
    "addr:street": "Rue de Reims",
    "amenity": "parcel_locker",
    "brand": "POST Luxembourg",
    "brand:wikidata": "Q1570910",
    "check_date": "2024-12-12",
    "name": "PackUp 24/24 Luxembourg Gare 1",
    "operator": "POST Luxembourg",
    "parcel_mail_in": "yes"
  }
},
{
  "type": "node",
  "id": 9283676096,
  "lat": 51.2142756,
  "lon": 6.2749402,
  "tags": {
    "alt_name": "Packstation",
    "amenity": "parcel_locker",
    "brand": "DHL Packstation",
    "brand:wikidata": "Q1766703",
    "brand:wikipedia": "de:Packstation",
    "fixme": "add info about display and authentication methods",
    "name": "DHL Packstation 217",
    "opening_hours": "24/7",
    "operator": "DHL",
    "operator:wikidata": "Q489815",
    "operator:wikipedia": "de:DHL",
    "parcel_mail_in": "yes",
    "parcel_pickup": "yes",
    "postal_code": "41366",
    "ref": "217",
    "short_name": "DHL",
    "surveillance": "outdoor"
  }
},
{
  "type": "node",
  "id": 9303876799,
  "lat": 50.9154999,
  "lon": 6.3781785,
  "tags": {
    "amenity": "parcel_locker",
    "brand": "DHL Packstation",
    "brand:wikidata": "Q1766703",
    "brand:wikipedia": "de:Packstation",
    "check_date": "2025-05-17",
    "opening_hours": "24/7",
    "operator": "DHL",
    "operator:wikidata": "Q489815",
    "operator:wikipedia": "de:DHL",
    "parcel_locker:type": "cabinet",
    "parcel_mail_in": "yes",
    "parcel_pickup": "yes",
    "ref": "203"
  }
},
{
  "type": "node",
  "id": 9327515519,
  "lat": 50.5659536,
  "lon": 4.6902044,
  "tags": {
    "amenity": "parcel_locker",
    "brand": "bpost",
    "brand:wikidata": "Q740553",
    "operator": "bpost",
    "parcel_mail_in": "yes",
    "parcel_pickup": "yes"
  }
},
{
  "type": "node",
  "id": 9332032192,
  "lat": 50.8365319,
  "lon": 6.0753869,
  "tags": {
    "amenity": "parcel_locker",
    "brand": "DHL Packstation",
    "brand:wikidata": "Q1766703",
    "brand:wikipedia": "de:Packstation",
    "opening_hours": "24/7",
    "operator": "DHL",
    "operator:wikidata": "Q489815",
    "operator:wikipedia": "de:DHL",
    "parcel_locker:type": "cabinet",
    "parcel_mail_in": "yes",
    "parcel_pickup": "yes",
    "postal_code": "52134",
    "ref": "187",
    "surveillance": "outdoor"
  }
},
{
  "type": "node",
  "id": 9332776113,
  "lat": 50.8361291,
  "lon": 6.0776322,
  "tags": {
    "amenity": "parcel_locker",
    "brand": "Amazon Locker",
    "brand:wikidata": "Q16974764",
    "brand:wikipedia": "en:Amazon Locker",
    "name": "jordana",
    "opening_hours": "24/7",
    "operator": "Amazon",
    "parcel_mail_in": "yes",
    "parcel_pickup": "yes",
    "postal_code": "52134",
    "ref": "jordana",
    "surveillance": "outdoor"
  }
},
{
  "type": "node",
  "id": 9347446125,
  "lat": 50.8513847,
  "lon": 4.4521410,
  "tags": {
    "amenity": "parcel_locker",
    "operator": "bpost",
    "operator:wikidata": "Q740553",
    "operator:wikipedia": "fr:bpost",
    "parcel_mail_in": "yes",
    "parcel_pickup": "yes"
  }
},
{
  "type": "node",
  "id": 9360709702,
  "lat": 50.8828063,
  "lon": 3.4255531,
  "tags": {
    "amenity": "parcel_locker",
    "app_operated": "no",
    "authentication:barcode_scanner": "yes",
    "brand": "bpost",
    "brand:wikidata": "Q740553",
    "check_date": "2026-02-01",
    "display": "digital",
    "display_operated": "yes",
    "fee": "no",
    "name": "BBOX-AUTOM TEXACO WAREGEM",
    "opening_hours": "24/7",
    "operator": "bpost",
    "operator:wikidata": "Q740553",
    "operator:wikipedia": "nl:Bpost",
    "parcel_mail_in": "yes",
    "parcel_pickup": "yes",
    "ref": "Automaat Total Waregem",
    "website": "https://www.bpost.be/nl/verkooppunten/WEST-VLAANDEREN/WAREGEM-8790/AUTOMAAT%20TOTAL%20WAREGEM",
    "wheelchair": "yes"
  }
},
{
  "type": "node",
  "id": 9385714414,
  "lat": 50.6502449,
  "lon": 3.0283741,
  "tags": {
    "amenity": "parcel_locker",
    "brand": "Pickup Station",
    "brand:wikidata": "Q110748562",
    "check_date": "2025-03-02",
    "level": "0",
    "name": "Pickup Station",
    "operator": "La Poste",
    "operator:wikidata": "Q373724",
    "operator:wikipedia": "fr:La Poste (entreprise française)",
    "parcel_mail_in": "yes"
  }
},
{
  "type": "node",
  "id": 9387838144,
  "lat": 50.8255267,
  "lon": 4.3864506,
  "tags": {
    "amenity": "parcel_locker",
    "collection_times": "24/7",
    "description": "bpost boxes. Can be used to deliver packages and collect via the bpost App",
    "operator": "bpost",
    "operator:website": "https://www.bpost.be/",
    "parcel_mail_in": "yes",
    "parcel_pickup": "yes"
  }
},
{
  "type": "node",
  "id": 9388752471,
  "lat": 50.8910318,
  "lon": 6.2762437,
  "tags": {
    "amenity": "parcel_locker",
    "brand": "DHL Packstation",
    "operator": "DHL",
    "operator:wikidata": "Q489815",
    "operator:wikipedia": "de:DHL",
    "parcel_mail_in": "yes",
    "parcel_pickup": "yes",
    "ref": "186"
  }
},
{
  "type": "node",
  "id": 9394210688,
  "lat": 50.8683277,
  "lon": 4.6989382,
  "tags": {
    "amenity": "parcel_locker",
    "authentication:barcode_scanner": "yes",
    "brand": "bpost",
    "brand:wikidata": "Q740553",
    "capacity": "26",
    "colour": "white",
    "currency:EUR": "yes",
    "opening_hours": "24/7",
    "operator": "bpost",
    "operator:wikidata": "Q740553",
    "panoramax": "a1b2a1b9-b510-4c9a-8668-d9b3c07853f9",
    "parcel_locker:type": "cabinet",
    "parcel_mail_in": "yes",
    "parcel_pickup": "yes",
    "wheelchair": "yes"
  }
},
{
  "type": "node",
  "id": 9397056282,
  "lat": 50.6180218,
  "lon": 3.1292527,
  "tags": {
    "amenity": "parcel_locker",
    "blind": "no",
    "brand": "Amazon Hub",
    "brand:wikidata": "Q100274430",
    "brand:wikipedia": "en:Amazon Locker",
    "check_date": "2023-09-23",
    "indoor": "yes",
    "level": "1",
    "name": "Amazon Hub Locker",
    "parcel_mail_in": "yes",
    "payment:none": "yes"
  }
},
{
  "type": "node",
  "id": 9397101124,
  "lat": 50.6069310,
  "lon": 3.1651290,
  "tags": {
    "amenity": "parcel_locker",
    "blind": "no",
    "brand": "Amazon Hub",
    "brand:wikidata": "Q100274430",
    "brand:wikipedia": "en:Amazon Locker",
    "colour": "black",
    "indoor": "no",
    "name": "Amazon Hub Locker",
    "parcel_pickup": "yes",
    "payment:none": "yes"
  }
},
{
  "type": "node",
  "id": 9401949236,
  "lat": 50.8803064,
  "lon": 4.7065905,
  "tags": {
    "amenity": "parcel_locker",
    "brand": "bpost",
    "brand:wikidata": "Q740553",
    "covered": "no",
    "currency:EUR": "yes",
    "indoor": "no",
    "opening_hours": "24/7",
    "operator": "bpost",
    "parcel_mail_in": "yes",
    "parcel_pickup": "yes",
    "ref": "Automaat P Center",
    "website": "https://www.bpost.be/nl/verkooppunten/VLAAMS-BRABANT/LEUVEN-3000/AUTOMAAT P CENTER"
  }
},
{
  "type": "node",
  "id": 9410801029,
  "lat": 49.6246198,
  "lon": 6.1932502,
  "tags": {
    "amenity": "parcel_locker",
    "brand": "PackUp",
    "name": "PackUp",
    "operator": "POST Luxembourg",
    "operator:wikidata": "Q1570910",
    "parcel_mail_in": "yes",
    "parcel_pickup": "yes"
  }
},
{
  "type": "node",
  "id": 9410868618,
  "lat": 50.8031707,
  "lon": 3.1047643,
  "tags": {
    "amenity": "parcel_locker",
    "covered": "no",
    "opening_hours": "24/7",
    "operator": "bpost",
    "operator:wikidata": "Q740553",
    "operator:wikipedia": "nl:bpost",
    "parcel_mail_in": "yes"
  }
},
{
  "type": "node",
  "id": 9428821878,
  "lat": 51.0936023,
  "lon": 3.4479388,
  "tags": {
    "amenity": "parcel_locker",
    "brand": "bpost",
    "check_date": "2024-07-04",
    "operator": "bpost",
    "operator:wikidata": "Q740553"
  }
},
{
  "type": "node",
  "id": 9429088514,
  "lat": 50.6643089,
  "lon": 3.1419412,
  "tags": {
    "amenity": "parcel_locker",
    "brand": "Amazon Hub",
    "brand:wikidata": "Q100274430",
    "brand:wikipedia": "en:Amazon Locker",
    "name": "Amazon Hub Locker"
  }
},
{
  "type": "node",
  "id": 9429141517,
  "lat": 50.5663972,
  "lon": 3.2231773,
  "tags": {
    "amenity": "parcel_locker",
    "brand": "Amazon Hub",
    "brand:wikidata": "Q100274430",
    "brand:wikipedia": "en:Amazon Locker",
    "name": "Amazon Hub Locker",
    "opening_hours": "24/7",
    "parcel_pickup": "yes"
  }
},
{
  "type": "node",
  "id": 9448689205,
  "lat": 50.8980374,
  "lon": 3.4006370,
  "tags": {
    "amenity": "parcel_locker",
    "app_operated": "no",
    "authentication:barcode_scanner": "yes",
    "brand": "bpost",
    "brand:wikidata": "Q740553",
    "check_date": "2025-04-26",
    "display": "digital",
    "display_operated": "yes",
    "fee": "no",
    "opening_hours": "24/7",
    "operator": "bpost",
    "operator:wikidata": "Q740553",
    "operator:wikipedia": "nl:Bpost",
    "parcel_mail_in": "yes",
    "parcel_pickup": "yes",
    "ref": "Automaat Carrefr St-Elooi",
    "website": "https://www.bpost.be/nl/verkooppunten/WEST-VLAANDEREN/WAREGEM-8793/AUTOMAAT%20CARREFR%20ST-ELOOI"
  }
},
{
  "type": "node",
  "id": 9459226677,
  "lat": 50.6923393,
  "lon": 3.0513986,
  "tags": {
    "amenity": "parcel_locker",
    "brand": "Amazon Hub",
    "brand:wikidata": "Q16974764",
    "brand:wikipedia": "en:Amazon Locker",
    "name": "Amazon Hub Locker",
    "parcel_mail_in": "yes"
  }
},
{
  "type": "node",
  "id": 9461224041,
  "lat": 50.7051305,
  "lon": 3.1584994,
  "tags": {
    "amenity": "parcel_locker",
    "brand": "Amazon Hub",
    "brand:wikidata": "Q16974764",
    "brand:wikipedia": "en:Amazon Locker",
    "name": "Amazon Hub Locker",
    "parcel_mail_in": "yes"
  }
},
{
  "type": "node",
  "id": 9483185206,
  "lat": 51.1977710,
  "lon": 6.3862199,
  "tags": {
    "amenity": "parcel_locker",
    "brand": "Amazon Hub",
    "brand:wikidata": "Q100274430",
    "brand:wikipedia": "en:Amazon Locker",
    "opening_hours": "24/7",
    "operator": "Amazon",
    "parcel_locker:type": "cabinet",
    "parcel_mail_in": "yes",
    "parcel_pickup": "yes"
  }
},
{
  "type": "node",
  "id": 9489057200,
  "lat": 50.9056886,
  "lon": 3.4039505,
  "tags": {
    "amenity": "parcel_locker",
    "app_operated": "only",
    "authentication:bluetooth": "yes",
    "brand": "bpost",
    "brand:wikidata": "Q740553",
    "check_date": "2024-07-13",
    "description": "Bpost pakjesautomaat zonder scherm. Bpost app nodig.",
    "display": "no",
    "display_operated": "no",
    "opening_hours": "24/7",
    "operator": "bpost",
    "operator:wikidata": "Q740553",
    "parcel_mail_in": "yes",
    "parcel_pickup": "yes",
    "ref": "Automaat Sint-Elligiuskerk",
    "website": "https://www.bpost.be/nl/verkooppunten/WEST-VLAANDEREN/WAREGEM-8793/AUTOMAAT%20SINT-ELLIGIUSKERK"
  }
},
{
  "type": "node",
  "id": 9529405412,
  "lat": 50.0103046,
  "lon": 6.0899802,
  "tags": {
    "amenity": "parcel_locker",
    "name": "PackUp",
    "opening_hours": "24/7",
    "operator": "POST Luxembourg",
    "operator:wikidata": "Q1570910",
    "ref": "0982"
  }
},
{
  "type": "node",
  "id": 9552458224,
  "lat": 51.4831972,
  "lon": 5.4491697,
  "tags": {
    "addr:city": "Eindhoven",
    "addr:housenumber": "37",
    "addr:postcode": "5627LE",
    "addr:street": "Biarritzplein",
    "amenity": "parcel_locker",
    "brand": "PostNL",
    "brand:wikidata": "Q5921598",
    "collection_times": "Mo-Fr 17:00",
    "operator": "PostNL"
  }
},
{
  "type": "node",
  "id": 9566588571,
  "lat": 51.4885272,
  "lon": 3.6020139,
  "tags": {
    "amenity": "parcel_locker",
    "brand": "PostNL",
    "brand:wikidata": "Q5921598",
    "name": "PostNL Pakketautomaat",
    "opening_hours": "24/7",
    "operator": "PostNL",
    "operator:wikidata": "Q5921598",
    "parcel_mail_in": "yes",
    "parcel_pickup": "yes"
  }
},
{
  "type": "node",
  "id": 9566657469,
  "lat": 51.4926108,
  "lon": 3.6234133,
  "tags": {
    "amenity": "parcel_locker",
    "opening_hours": "24/7",
    "operator": "PostNL",
    "operator:wikidata": "Q5921598",
    "parcel_mail_in": "yes",
    "parcel_pickup": "yes"
  }
},
{
  "type": "node",
  "id": 9592872986,
  "lat": 50.4686712,
  "lon": 4.8626628,
  "tags": {
    "amenity": "parcel_locker",
    "brand": "bpost",
    "brand:wikidata": "Q740553",
    "indoor": "yes",
    "level": "0",
    "operator": "bpost"
  }
},
{
  "type": "node",
  "id": 9612625365,
  "lat": 50.8221571,
  "lon": 6.1428544,
  "tags": {
    "amenity": "parcel_locker",
    "brand": "DHL Packstation",
    "brand:wikidata": "Q1766703",
    "brand:wikipedia": "de:Packstation",
    "check_date": "2025-02-01",
    "operator": "DHL",
    "parcel_mail_in": "yes",
    "parcel_pickup": "yes"
  }
},
{
  "type": "node",
  "id": 9644440836,
  "lat": 50.8919597,
  "lon": 3.4373240,
  "tags": {
    "amenity": "parcel_locker",
    "app_operated": "only",
    "authentication:bluetooth": "yes",
    "brand": "bpost",
    "brand:wikidata": "Q740553",
    "description": "Bpost pakjesautomaat zonder scherm. Bpost app nodig.",
    "display": "no",
    "display_operated": "no",
    "fee": "no",
    "opening_hours": "24/7",
    "operator": "bpost",
    "operator:wikidata": "Q740553",
    "operator:wikipedia": "nl:Bpost",
    "parcel_mail_in": "yes",
    "parcel_pickup": "yes",
    "ref": "Automaat Biezebos Waregem",
    "website": "https://www.bpost.be/nl/verkooppunten/WEST-VLAANDEREN/WAREGEM-8790/AUTOMAAT%20BIEZEBOS%20WAREGEM"
  }
},
{
  "type": "node",
  "id": 9691855398,
  "lat": 50.8656059,
  "lon": 4.7057381,
  "tags": {
    "amenity": "parcel_locker",
    "covered": "no",
    "indoor": "no",
    "operator": "bpost",
    "parcel_pickup": "yes"
  }
},
{
  "type": "node",
  "id": 9702682558,
  "lat": 50.8654347,
  "lon": 4.7041871,
  "tags": {
    "amenity": "parcel_locker",
    "covered": "no",
    "indoor": "no",
    "opening_hours": "24/7",
    "operator": "bpost",
    "parcel_mail_in": "yes",
    "parcel_pickup": "yes"
  }
},
{
  "type": "node",
  "id": 9714377755,
  "lat": 50.8779860,
  "lon": 4.7154724,
  "tags": {
    "amenity": "parcel_locker",
    "brand": "bpost",
    "brand:wikidata": "Q740553",
    "covered": "no",
    "operator": "bpost",
    "parcel_pickup": "yes"
  }
},
{
  "type": "node",
  "id": 9717191897,
  "lat": 50.8491090,
  "lon": 4.7232710,
  "tags": {
    "amenity": "parcel_locker",
    "brand": "bpost",
    "brand:wikidata": "Q740553",
    "operator": "bpost",
    "parcel_mail_in": "yes",
    "parcel_pickup": "yes"
  }
},
{
  "type": "node",
  "id": 9741448163,
  "lat": 50.8672860,
  "lon": 4.7129194,
  "tags": {
    "amenity": "parcel_locker",
    "check_date": "2024-06-11",
    "covered": "no",
    "indoor": "no",
    "operator": "bpost",
    "parcel_pickup": "yes"
  }
},
{
  "type": "node",
  "id": 9773914291,
  "lat": 51.2271293,
  "lon": 4.5239554,
  "tags": {
    "amenity": "parcel_locker",
    "operator": "bpost",
    "operator:wikidata": "Q740553",
    "parcel_mail_in": "yes",
    "parcel_pickup": "yes"
  }
},
{
  "type": "node",
  "id": 9776941783,
  "lat": 50.7608213,
  "lon": 6.1529813,
  "tags": {
    "amenity": "parcel_locker",
    "brand": "DHL Packstation",
    "brand:wikidata": "Q1766703",
    "brand:wikipedia": "de:Packstation",
    "operator": "DHL",
    "parcel_locker:type": "cabinet",
    "parcel_mail_in": "yes",
    "parcel_pickup": "yes",
    "postal_code": "52078",
    "ref": "158"
  }
},
{
  "type": "node",
  "id": 9809896224,
  "lat": 50.7464577,
  "lon": 3.5867624,
  "tags": {
    "amenity": "parcel_locker",
    "brand": "bpost",
    "brand:wikidata": "Q740553",
    "brand:wikipedia": "Q740553",
    "operator": "bpost",
    "parcel_mail_in": "yes",
    "parcel_pickup": "yes"
  }
},
{
  "type": "node",
  "id": 9815265821,
  "lat": 49.9118866,
  "lon": 5.3579900,
  "tags": {
    "amenity": "parcel_locker",
    "brand": "bpost",
    "brand:wikidata": "Q740553",
    "opening_hours": "24/7",
    "operator": "bpost",
    "parcel_mail_in": "yes",
    "parcel_pickup": "yes",
    "ref": "Distributeur de Colis BPOST"
  }
},
{
  "type": "node",
  "id": 9842878013,
  "lat": 49.6721608,
  "lon": 6.0369558,
  "tags": {
    "amenity": "parcel_locker",
    "brand": "POST Luxembourg",
    "brand:wikidata": "Q1570910",
    "name": "PackUp",
    "opening_hours": "24/7",
    "operator": "POST Luxembourg",
    "operator:wikidata": "Q1570910",
    "parcel_pickup": "yes"
  }
},
{
  "type": "node",
  "id": 9843765476,
  "lat": 50.7911128,
  "lon": 4.2951313,
  "tags": {
    "amenity": "parcel_locker",
    "description:en": "Parcel Locker",
    "description:fr": "Distributeur de colis",
    "description:nl": "Pakjesautomaat",
    "operator": "bpost"
  }
},
{
  "type": "node",
  "id": 9845921053,
  "lat": 50.9209287,
  "lon": 3.2142481,
  "tags": {
    "amenity": "parcel_locker",
    "brand": "bpost",
    "name": "AUTOMAAT STATION IZEGEM",
    "opening_hours": "24/7",
    "operator": "bpost",
    "operator:wikidata": "Q740553",
    "operator:wikipedia": "nl:bpost",
    "panoramax": "218ccecc-1b2e-436f-9c99-ce57fa41458b",
    "parcel_mail_in": "yes",
    "parcel_pickup": "yes",
    "ref": "4025"
  }
},
{
  "type": "node",
  "id": 9848214946,
  "lat": 50.3743438,
  "lon": 3.5404901,
  "tags": {
    "amenity": "parcel_locker",
    "brand": "Mondial Relay",
    "brand:wikidata": "Q3320547",
    "parcel_mail_in": "yes"
  }
},
{
  "type": "node",
  "id": 9860325387,
  "lat": 50.6626210,
  "lon": 2.9740103,
  "tags": {
    "amenity": "parcel_locker",
    "brand": "Mondial Relay",
    "brand:wikidata": "Q3320547",
    "operator": "Mondial Relay",
    "operator:wikidata": "Q3320547",
    "parcel_mail_in": "yes",
    "parcel_pickup": "yes"
  }
},
{
  "type": "node",
  "id": 9861782800,
  "lat": 49.6846631,
  "lon": 4.9734906,
  "tags": {
    "amenity": "parcel_locker",
    "brand": "Amazon Locker",
    "brand:wikidata": "Q16974764",
    "brand:wikipedia": "en:Amazon Locker",
    "name": "Amazon Locker",
    "operator": "Amazon",
    "operator:wikidata": "Q3884",
    "operator:wikipedia": "en:Amazon (company)",
    "parcel_locker:type": "cabinet",
    "parcel_mail_in": "returns_only",
    "parcel_pickup": "yes",
    "ref": "jami"
  }
},
{
  "type": "node",
  "id": 9880972629,
  "lat": 50.9311497,
  "lon": 3.6546902,
  "tags": {
    "amenity": "parcel_locker",
    "brand": "bpost",
    "brand:wikidata": "Q740553",
    "opening_hours": "24/7",
    "operator": "bpost",
    "parcel_mail_in": "yes",
    "parcel_pickup": "yes",
    "ref": "Automaat Mobipunt Gavere",
    "website": "https://www.bpost.be/nl/verkooppunten/OOST-VLAANDEREN/GAVERE-9890/AUTOMAAT MOBIPUNT GAVERE"
  }
},
{
  "type": "node",
  "id": 9885259605,
  "lat": 50.6039116,
  "lon": 3.0767143,
  "tags": {
    "amenity": "parcel_locker",
    "brand": "Amazon Hub",
    "brand:wikidata": "Q100274430",
    "name": "Amazon Hub Locker",
    "ref": "nature"
  }
},
{
  "type": "node",
  "id": 9885259606,
  "lat": 50.6044640,
  "lon": 3.0783240,
  "tags": {
    "amenity": "parcel_locker",
    "brand": "Amazon Hub",
    "brand:wikidata": "Q100274430",
    "name": "Amazon Hub Locker",
    "parcel_pickup": "yes",
    "ref": "pataclet"
  }
},
{
  "type": "node",
  "id": 9891934001,
  "lat": 49.6434887,
  "lon": 5.9971594,
  "tags": {
    "amenity": "parcel_locker",
    "opening_hours": "24/7",
    "operator": "POST",
    "parcel_mail_in": "yes",
    "parcel_pickup": "yes",
    "payment:free": "yes"
  }
},
{
  "type": "node",
  "id": 9895383545,
  "lat": 51.1263103,
  "lon": 6.1924294,
  "tags": {
    "amenity": "parcel_locker",
    "check_date": "2025-03-07",
    "operator": "DHL",
    "parcel_mail_in": "yes",
    "parcel_pickup": "yes",
    "ref": "215"
  }
},
{
  "type": "node",
  "id": 9916334827,
  "lat": 50.8664943,
  "lon": 4.3501848,
  "tags": {
    "amenity": "parcel_locker",
    "indoor": "yes",
    "level": "0"
  }
},
{
  "type": "node",
  "id": 9917538536,
  "lat": 51.1898633,
  "lon": 4.4397105,
  "tags": {
    "amenity": "parcel_locker",
    "operator": "bpost",
    "parcel_mail_in": "yes",
    "parcel_pickup": "yes"
  }
},
{
  "type": "node",
  "id": 9937677120,
  "lat": 50.9839595,
  "lon": 4.8382980,
  "tags": {
    "amenity": "parcel_locker",
    "brand": "bpost",
    "brand:wikidata": "Q740553",
    "check_date": "2024-12-04",
    "operator": "bpost",
    "operator:wikidata": "Q740553",
    "operator:wikipedia": "nl:bpost",
    "parcel_mail_in": "yes",
    "parcel_pickup": "yes",
    "wheelchair": "yes"
  }
},
{
  "type": "node",
  "id": 9938672069,
  "lat": 50.8739164,
  "lon": 4.7056200,
  "tags": {
    "amenity": "parcel_locker",
    "app_operated": "only",
    "authentication:bluetooth": "yes",
    "brand": "bpost",
    "brand:wikidata": "Q740553",
    "capacity": "26",
    "colour": "white",
    "contact:phone": "+32 22 01 23 45",
    "contact:website": "https://www.bpost.be/nl/verkooppunten/VLAAMS-BRABANT/LEUVEN-3000/BBOX%20ZORG%20LEUVEN",
    "covered": "yes",
    "material": "steel",
    "name": "Zorg Leuven",
    "opening_hours": "24/7",
    "operator": "bpost",
    "operator:wikidata": "Q740553",
    "panoramax": "bce52dd6-32d6-43aa-acf0-9c41b88fee34",
    "parcel_locker:type": "cabinet",
    "parcel_mail_in": "yes",
    "parcel_pickup": "yes"
  }
},
{
  "type": "node",
  "id": 9941167754,
  "lat": 50.7823558,
  "lon": 5.4700867,
  "tags": {
    "amenity": "parcel_locker",
    "covered": "yes",
    "indoor": "no",
    "mapillary": "4866121646820843",
    "opening_hours": "24/7",
    "operator": "bpost",
    "parcel_mail_in": "yes",
    "parcel_pickup": "yes"
  }
},
{
  "type": "node",
  "id": 9945807218,
  "lat": 49.8582150,
  "lon": 4.7633489,
  "tags": {
    "amenity": "parcel_locker",
    "brand": "Amazon Hub",
    "brand:wikidata": "Q16974764",
    "name": "Amazon Hub Locker"
  }
},
{
  "type": "node",
  "id": 9952695503,
  "lat": 51.0288326,
  "lon": 4.4908629,
  "tags": {
    "amenity": "parcel_locker",
    "brand": "bpost",
    "check_date": "2025-12-19"
  }
},
{
  "type": "node",
  "id": 9961816757,
  "lat": 50.7835263,
  "lon": 4.2775501,
  "tags": {
    "amenity": "parcel_locker",
    "description:en": "Parcel Locker",
    "description:fr": "Distributeur de colis",
    "description:nl": "Pakjesautomaat",
    "operator": "bpost",
    "parcel_mail_in": "yes",
    "parcel_pickup": "yes"
  }
},
{
  "type": "node",
  "id": 9975826157,
  "lat": 50.8801819,
  "lon": 6.1648368,
  "tags": {
    "amenity": "parcel_locker",
    "brand": "DHL Packstation",
    "brand:wikidata": "Q1766703",
    "operator": "DHL",
    "operator:wikidata": "Q489815",
    "parcel_mail_in": "yes"
  }
},
{
  "type": "node",
  "id": 9983018600,
  "lat": 51.0920944,
  "lon": 6.1590486,
  "tags": {
    "amenity": "parcel_locker",
    "app_operated": "no",
    "authentication:app": "yes",
    "authentication:bluetooth": "no",
    "brand": "DHL Packstation",
    "brand:wikidata": "Q1766703",
    "display": "digital",
    "display_operated": "yes",
    "label_printer": "yes",
    "name": "DHL Packstation 137",
    "opening_hours": "24/7",
    "operator": "DHL",
    "operator:wikidata": "Q489815",
    "parcel_mail_in": "yes",
    "ref": "137",
    "short_name": "DHL"
  }
},
{
  "type": "node",
  "id": 9995873547,
  "lat": 50.4519070,
  "lon": 3.9575474,
  "tags": {
    "amenity": "parcel_locker",
    "operator": "bpost"
  }
},
{
  "type": "node",
  "id": 9995873548,
  "lat": 50.4555749,
  "lon": 3.9571851,
  "tags": {
    "amenity": "parcel_locker",
    "operator": "bpost"
  }
},
{
  "type": "node",
  "id": 9995873549,
  "lat": 50.4483728,
  "lon": 3.9509747,
  "tags": {
    "amenity": "parcel_locker",
    "check_date": "2024-12-23",
    "name": "Pêcherie",
    "opening_hours": "24/7",
    "operator": "bpost",
    "parcel_mail_in": "yes",
    "parcel_pickup": "yes",
    "ref": "40558",
    "source": "survey"
  }
},
{
  "type": "node",
  "id": 9995873550,
  "lat": 50.4546634,
  "lon": 3.9470712,
  "tags": {
    "amenity": "parcel_locker",
    "operator": "bpost"
  }
},
{
  "type": "node",
  "id": 9995873551,
  "lat": 50.4512272,
  "lon": 3.9421846,
  "tags": {
    "amenity": "parcel_locker",
    "operator": "bpost"
  }
},
{
  "type": "node",
  "id": 10002970865,
  "lat": 49.7397819,
  "lon": 4.7245270,
  "tags": {
    "amenity": "parcel_locker",
    "brand": "Amazon Hub",
    "brand:wikidata": "Q16974764",
    "name": "Amazon Hub Locker"
  }
},
{
  "type": "node",
  "id": 10024263692,
  "lat": 51.1020273,
  "lon": 6.1833686,
  "tags": {
    "amenity": "parcel_locker",
    "app_operated": "yes",
    "authentication:app": "yes",
    "authentication:bluetooth": "yes",
    "brand": "DHL Packstation",
    "brand:wikidata": "Q1766703",
    "brand:wikipedia": "de:Packstation",
    "check_date": "2025-11-02",
    "colour": "yellow",
    "display": "no",
    "display_operated": "no",
    "label_printer": "no",
    "name": "DHL Packstation 228",
    "opening_hours": "24/7",
    "operator": "DHL",
    "operator:wikidata": "Q489815",
    "operator:wikipedia": "de:DHL",
    "parcel_mail_in": "yes",
    "ref": "228"
  }
},
{
  "type": "node",
  "id": 10026725796,
  "lat": 51.0749215,
  "lon": 6.3056679,
  "tags": {
    "amenity": "parcel_locker",
    "brand": "DHL Packstation",
    "brand:wikidata": "Q1766703",
    "label_printer": "yes",
    "name": "DHL Packstation 136",
    "opening_hours": "24/7",
    "operator": "DHL",
    "operator:wikidata": "Q489815",
    "parcel_mail_in": "yes",
    "parcel_pickup": "yes"
  }
},
{
  "type": "node",
  "id": 10026730526,
  "lat": 51.0708772,
  "lon": 6.3044609,
  "tags": {
    "amenity": "parcel_locker",
    "brand": "DHL Packstation",
    "brand:wikidata": "Q1766703",
    "brand:wikipedia": "de:Packstation",
    "label_printer": "yes",
    "object:housenumber": "1",
    "object:street": "Gewerbestraße Süd",
    "opening_hours": "24/7",
    "operator": "DHL",
    "operator:wikidata": "Q489815",
    "operator:wikipedia": "de:DHL",
    "parcel_locker:type": "cabinet",
    "parcel_mail_in": "yes",
    "parcel_pickup": "yes",
    "ref": "202"
  }
},
{
  "type": "node",
  "id": 10032361523,
  "lat": 50.7496028,
  "lon": 3.5955302,
  "tags": {
    "amenity": "parcel_locker",
    "authentication:app": "yes",
    "brand:wikidata": "Q740553",
    "operator": "bpost",
    "operator:wikidata": "Q740553",
    "operator:wikipedia": "nl:bpost",
    "parcel_mail_in": "yes",
    "parcel_pickup": "yes"
  }
},
{
  "type": "node",
  "id": 10032374059,
  "lat": 50.7469664,
  "lon": 3.6051424,
  "tags": {
    "amenity": "parcel_locker",
    "authentication:app": "yes",
    "brand:wikidata": "Q740553",
    "operator": "bpost",
    "operator:wikidata": "Q740553",
    "operator:wikipedia": "nl:bpost",
    "parcel_mail_in": "yes",
    "parcel_pickup": "yes"
  }
},
{
  "type": "node",
  "id": 10035020932,
  "lat": 49.5018020,
  "lon": 4.3601078,
  "tags": {
    "amenity": "parcel_locker",
    "brand": "Mondial Relay",
    "brand:wikidata": "Q3320547",
    "parcel_mail_in": "yes"
  }
},
{
  "type": "node",
  "id": 10047472200,
  "lat": 50.7545427,
  "lon": 6.1538478,
  "tags": {
    "amenity": "parcel_locker",
    "brand": "DHL Packstation",
    "brand:wikidata": "Q1766703",
    "brand:wikipedia": "de:Packstation",
    "opening_hours": "24/7",
    "operator": "DHL",
    "operator:wikidata": "Q489815",
    "operator:wikipedia": "de:DHL",
    "parcel_locker:type": "cabinet",
    "parcel_mail_in": "yes",
    "parcel_pickup": "yes",
    "postal_code": "52078",
    "ref": "199"
  }
},
{
  "type": "node",
  "id": 10047821279,
  "lat": 50.7879399,
  "lon": 6.0680406,
  "tags": {
    "amenity": "parcel_locker",
    "brand": "DHL Packstation",
    "brand:wikidata": "Q1766703",
    "brand:wikipedia": "de:Packstation",
    "colour": "yellow",
    "indoor": "no",
    "opening_hours": "24/7",
    "operator": "DHL",
    "operator:wikidata": "Q489815",
    "operator:wikipedia": "de:DHL",
    "parcel_locker:type": "cabinet",
    "parcel_mail_in": "yes",
    "parcel_pickup": "yes",
    "postal_code": "52072",
    "ref": "147"
  }
},
{
  "type": "node",
  "id": 10068419351,
  "lat": 50.7949374,
  "lon": 6.0575230,
  "tags": {
    "amenity": "parcel_locker",
    "brand": "DHL Packstation",
    "brand:wikidata": "Q1766703",
    "brand:wikipedia": "de:Packstation",
    "check_date": "2026-02-23",
    "colour": "yellow",
    "opening_hours": "24/7",
    "operator": "DHL",
    "operator:wikidata": "Q489815",
    "operator:wikipedia": "de:DHL",
    "parcel_locker:type": "cabinet",
    "parcel_mail_in": "yes",
    "parcel_pickup": "yes",
    "postal_code": "52074",
    "ref": "202"
  }
},
{
  "type": "node",
  "id": 10077527784,
  "lat": 50.6741969,
  "lon": 4.6168638,
  "tags": {
    "amenity": "parcel_locker",
    "operator": "bpost",
    "operator:wikidata": "Q740553",
    "operator:wikipedia": "nl:bpost",
    "parcel_locker:type": "cabinet",
    "parcel_pickup": "yes"
  }
},
{
  "type": "node",
  "id": 10077539121,
  "lat": 50.9490166,
  "lon": 3.1194166,
  "tags": {
    "amenity": "parcel_locker",
    "operator": "bpost",
    "parcel_pickup": "yes"
  }
},
{
  "type": "node",
  "id": 10086659228,
  "lat": 50.7757267,
  "lon": 6.1119703,
  "tags": {
    "amenity": "parcel_locker",
    "app_operated": "only",
    "brand": "DHL Packstation",
    "brand:wikidata": "Q1766703",
    "brand:wikipedia": "de:Packstation",
    "operator": "DHL",
    "operator:wikidata": "Q489815",
    "operator:wikipedia": "de:DHL",
    "parcel_locker:type": "cabinet",
    "parcel_mail_in": "yes",
    "parcel_pickup": "yes",
    "postal_code": "52068",
    "ref": "164"
  }
},
{
  "type": "node",
  "id": 10086659229,
  "lat": 50.7697816,
  "lon": 6.1191939,
  "tags": {
    "amenity": "parcel_locker",
    "brand": "DHL Packstation",
    "brand:wikidata": "Q1766703",
    "brand:wikipedia": "de:Packstation",
    "check_date": "2025-06-25",
    "operator": "DHL",
    "operator:wikidata": "Q489815",
    "operator:wikipedia": "de:DHL",
    "parcel_locker:type": "cabinet",
    "parcel_mail_in": "yes",
    "parcel_pickup": "yes",
    "postal_code": "52078",
    "ref": "185"
  }
},
{
  "type": "node",
  "id": 10090053931,
  "lat": 50.7782693,
  "lon": 6.1219268,
  "tags": {
    "amenity": "parcel_locker",
    "app_operated": "only",
    "brand": "DHL Packstation",
    "brand:wikidata": "Q1766703",
    "brand:wikipedia": "de:Packstation",
    "check_date": "2025-05-07",
    "operator": "DHL",
    "operator:wikidata": "Q489815",
    "operator:wikipedia": "de:DHL",
    "parcel_locker:type": "cabinet",
    "parcel_mail_in": "yes",
    "parcel_pickup": "yes",
    "postal_code": "52068",
    "ref": "203"
  }
},
{
  "type": "node",
  "id": 10090053934,
  "lat": 50.7797262,
  "lon": 6.1131111,
  "tags": {
    "amenity": "parcel_locker",
    "brand": "DHL Packstation",
    "brand:wikidata": "Q1766703",
    "brand:wikipedia": "de:Packstation",
    "check_date": "2024-11-01",
    "operator": "DHL",
    "operator:wikidata": "Q489815",
    "operator:wikipedia": "de:DHL",
    "parcel_locker:type": "cabinet",
    "parcel_mail_in": "yes",
    "parcel_pickup": "yes",
    "postal_code": "52068",
    "ref": "135"
  }
},
{
  "type": "node",
  "id": 10094619523,
  "lat": 50.7128428,
  "lon": 6.1389306,
  "tags": {
    "amenity": "parcel_locker",
    "brand": "DHL Packstation",
    "brand:wikidata": "Q1766703",
    "operator": "DHL",
    "operator:wikidata": "Q489815",
    "parcel_mail_in": "yes",
    "parcel_pickup": "yes",
    "ref": "206"
  }
},
{
  "type": "node",
  "id": 10094619524,
  "lat": 50.7125119,
  "lon": 6.1390915,
  "tags": {
    "amenity": "parcel_locker",
    "brand": "DHL Packstation",
    "brand:wikidata": "Q1766703",
    "check_date": "2024-11-06",
    "operator": "DHL",
    "operator:wikidata": "Q489815",
    "parcel_mail_in": "yes",
    "ref": "162"
  }
},
{
  "type": "node",
  "id": 10099163211,
  "lat": 49.5171578,
  "lon": 5.7517293,
  "tags": {
    "amenity": "parcel_locker",
    "brand": "Mondial Relay",
    "brand:wikidata": "Q3320547",
    "parcel_mail_in": "yes"
  }
},
{
  "type": "node",
  "id": 10100717190,
  "lat": 50.2280219,
  "lon": 5.3386958,
  "tags": {
    "addr:city": "Marche-en-Famenne",
    "addr:housenumber": "28",
    "addr:postcode": "6900",
    "addr:street": "Rue Victor Libert",
    "amenity": "parcel_locker",
    "colour": "red",
    "name": "Distributeur de Colis Bpost Marche-en-Famenne",
    "opening_hours": "24/7",
    "operator": "bpost",
    "parcel_mail_in": "yes",
    "parcel_pickup": "yes"
  }
},
{
  "type": "node",
  "id": 10111688743,
  "lat": 50.8818625,
  "lon": 4.6975652,
  "tags": {
    "amenity": "parcel_locker",
    "brand": "bpost",
    "brand:wikidata": "Q740553",
    "name": "Dirk Boutslaan",
    "operator": "bpost",
    "parcel_mail_in": "yes",
    "parcel_pickup": "yes",
    "wheelchair": "yes"
  }
},